{
"type": "FeatureCollection",
"features": [
{ "type": "Feature", "properties": { "NAME": "������վ", "KIND": "4082", "ADDRESS": "�㶫ʡ�����з�خ����ɽ��", "TELEPHONE": null }, "geometry": { "type": "Point", "coordinates": [ 113.401375, 22.818234 ] } },
{ "type": "Feature", "properties": { "NAME": "����ʯ�����ڼ���վ", "KIND": "4082", "ADDRESS": "�㶫ʡ�����з�خ��������", "TELEPHONE": null }, "geometry": { "type": "Point", "coordinates": [ 113.402185, 22.805887 ] } },
{ "type": "Feature", "properties": { "NAME": "��������վ", "KIND": "4082", "ADDRESS": "�㶫ʡ�����з�خ��̶����", "TELEPHONE": null }, "geometry": { "type": "Point", "coordinates": [ 113.424504, 22.802192 ] } },
{ "type": "Feature", "properties": { "NAME": "���㶫��վ", "KIND": "4082", "ADDRESS": "�㶫ʡ�����з�خ������ͷ��", "TELEPHONE": null }, "geometry": { "type": "Point", "coordinates": [ 113.457739, 22.825349 ] } },
{ "type": "Feature", "properties": { "NAME": "��������վ", "KIND": "4082", "ADDRESS": "�㶫ʡ�����з�خ������ͷ��", "TELEPHONE": null }, "geometry": { "type": "Point", "coordinates": [ 113.456556, 22.824674 ] } },
{ "type": "Feature", "properties": { "NAME": "������վ", "KIND": "4082", "ADDRESS": "�㶫ʡ�����з�خ������ͷ��", "TELEPHONE": null }, "geometry": { "type": "Point", "coordinates": [ 113.464721, 22.811747 ] } },
{ "type": "Feature", "properties": { "NAME": "������վ", "KIND": "4082", "ADDRESS": "�㶫ʡ�����з�خ������ͷ��", "TELEPHONE": null }, "geometry": { "type": "Point", "coordinates": [ 113.465758, 22.812255 ] } },
{ "type": "Feature", "properties": { "NAME": "�ڵ���վ", "KIND": "4082", "ADDRESS": "�㶫ʡ��������ɳ�������", "TELEPHONE": null }, "geometry": { "type": "Point", "coordinates": [ 113.47971, 22.779343 ] } },
{ "type": "Feature", "properties": { "NAME": "��ɽ��վ", "KIND": "4082", "ADDRESS": "�㶫ʡ��������ɳ�������", "TELEPHONE": null }, "geometry": { "type": "Point", "coordinates": [ 113.488145, 22.775482 ] } },
{ "type": "Feature", "properties": { "NAME": "ǰ������վ", "KIND": "4082", "ADDRESS": "�㶫ʡ��������ɳ���Ƹ���", "TELEPHONE": null }, "geometry": { "type": "Point", "coordinates": [ 113.489638, 22.796213 ] } },
{ "type": "Feature", "properties": { "NAME": "������վ", "KIND": "4082", "ADDRESS": "�㶫ʡ�����а�����������", "TELEPHONE": null }, "geometry": { "type": "Point", "coordinates": [ 113.269968, 23.259475 ] } },
{ "type": "Feature", "properties": { "NAME": "��Դ��վ", "KIND": "4082", "ADDRESS": "�㶫ʡ�����а�����������", "TELEPHONE": null }, "geometry": { "type": "Point", "coordinates": [ 113.300947, 23.29679 ] } },
{ "type": "Feature", "properties": { "NAME": "�����ͳ�", "KIND": "4082", "ADDRESS": "�㶫ʡ�����а�����̫����", "TELEPHONE": null }, "geometry": { "type": "Point", "coordinates": [ 113.328341, 23.287413 ] } },
{ "type": "Feature", "properties": { "NAME": "�����ͳ�", "KIND": "4082", "ADDRESS": "�㶫ʡ�����а�����̫����", "TELEPHONE": null }, "geometry": { "type": "Point", "coordinates": [ 113.329655, 23.287197 ] } },
{ "type": "Feature", "properties": { "NAME": "������վ", "KIND": "4082", "ADDRESS": "�㶫ʡ�����а�����̫����", "TELEPHONE": null }, "geometry": { "type": "Point", "coordinates": [ 113.335993, 23.295642 ] } },
{ "type": "Feature", "properties": { "NAME": "Խ̩����վ", "KIND": "4082", "ADDRESS": "�㶫ʡ�����а�����̫����", "TELEPHONE": null }, "geometry": { "type": "Point", "coordinates": [ 113.3441, 23.304785 ] } },
{ "type": "Feature", "properties": { "NAME": "��Դ��վ", "KIND": "4082", "ADDRESS": "�㶫ʡ�����а�����̫����", "TELEPHONE": null }, "geometry": { "type": "Point", "coordinates": [ 113.351228, 23.260116 ] } },
{ "type": "Feature", "properties": { "NAME": "���Զ�����վ", "KIND": "4082", "ADDRESS": "�㶫ʡ�����з�خ������ͷ��", "TELEPHONE": null }, "geometry": { "type": "Point", "coordinates": [ 113.38623, 22.88561 ] } },
{ "type": "Feature", "properties": { "NAME": "����������վ", "KIND": "4082", "ADDRESS": "�㶫ʡ�����з�خ������ͷ��", "TELEPHONE": null }, "geometry": { "type": "Point", "coordinates": [ 113.386021, 22.885873 ] } },
{ "type": "Feature", "properties": { "NAME": "ƽ�ȼ���վ", "KIND": "4082", "ADDRESS": "�㶫ʡ�����з�خ����ɽ��", "TELEPHONE": null }, "geometry": { "type": "Point", "coordinates": [ 113.388573, 22.832953 ] } },
{ "type": "Feature", "properties": { "NAME": "��������վ", "KIND": "4082", "ADDRESS": "�㶫ʡ�����з�خ����ӿ��", "TELEPHONE": null }, "geometry": { "type": "Point", "coordinates": [ 113.470145, 22.880026 ] } },
{ "type": "Feature", "properties": { "NAME": "��ʢ����վ", "KIND": "4082", "ADDRESS": "�㶫ʡ�����з�خ����ӿ��", "TELEPHONE": null }, "geometry": { "type": "Point", "coordinates": [ 113.488485, 22.856338 ] } },
{ "type": "Feature", "properties": { "NAME": "�Ƹ�����վ", "KIND": "4082", "ADDRESS": "�㶫ʡ��������ɳ���Ƹ���", "TELEPHONE": null }, "geometry": { "type": "Point", "coordinates": [ 113.495429, 22.849476 ] } },
{ "type": "Feature", "properties": { "NAME": "ʨ������վ", "KIND": "4082", "ADDRESS": "�㶫ʡ�����л�����ʨ����", "TELEPHONE": null }, "geometry": { "type": "Point", "coordinates": [ 113.145132, 23.461279 ] } },
{ "type": "Feature", "properties": { "NAME": "��������վ", "KIND": "4082", "ADDRESS": "�㶫ʡ�����л�����������", "TELEPHONE": null }, "geometry": { "type": "Point", "coordinates": [ 113.079967, 23.388101 ] } },
{ "type": "Feature", "properties": { "NAME": "��ɽ����վ", "KIND": "4082", "ADDRESS": "�㶫ʡ�����л�����̿����", "TELEPHONE": null }, "geometry": { "type": "Point", "coordinates": [ 113.091307, 23.306013 ] } },
{ "type": "Feature", "properties": { "NAME": "��������վ", "KIND": "4082", "ADDRESS": "�㶫ʡ�����л�����̿����", "TELEPHONE": null }, "geometry": { "type": "Point", "coordinates": [ 113.097672, 23.337676 ] } },
{ "type": "Feature", "properties": { "NAME": "����̶��վ", "KIND": "4082", "ADDRESS": "�㶫ʡ�����л�����̿����", "TELEPHONE": null }, "geometry": { "type": "Point", "coordinates": [ 113.110077, 23.373649 ] } },
{ "type": "Feature", "properties": { "NAME": "�ͽ�����վ", "KIND": "4082", "ADDRESS": "�㶫ʡ�����л�����̿����", "TELEPHONE": null }, "geometry": { "type": "Point", "coordinates": [ 113.102931, 23.331934 ] } },
{ "type": "Feature", "properties": { "NAME": "�Ľ�Χ��վ", "KIND": "4082", "ADDRESS": "�㶫ʡ�����л�����̿����", "TELEPHONE": null }, "geometry": { "type": "Point", "coordinates": [ 113.121505, 23.373452 ] } },
{ "type": "Feature", "properties": { "NAME": "��������վ", "KIND": "4082", "ADDRESS": "�㶫ʡ�����л������»���", "TELEPHONE": null }, "geometry": { "type": "Point", "coordinates": [ 113.131095, 23.376798 ] } },
{ "type": "Feature", "properties": { "NAME": "����������վ", "KIND": "4082", "ADDRESS": "�㶫ʡ�������������������������", "TELEPHONE": null }, "geometry": { "type": "Point", "coordinates": [ 113.208685, 23.113801 ] } },
{ "type": "Feature", "properties": { "NAME": "���ż���վ", "KIND": "4082", "ADDRESS": "�㶫ʡ������������ʯΧ���", "TELEPHONE": null }, "geometry": { "type": "Point", "coordinates": [ 113.20836, 23.119632 ] } },
{ "type": "Feature", "properties": { "NAME": "��ɳ����վ", "KIND": "4082", "ADDRESS": "�㶫ʡ���������������ϴ��֣���", "TELEPHONE": null }, "geometry": { "type": "Point", "coordinates": [ 113.223946, 23.126395 ] } },
{ "type": "Feature", "properties": { "NAME": "��ɳ��վ", "KIND": "4082", "ADDRESS": "�㶫ʡ������������������·����", "TELEPHONE": null }, "geometry": { "type": "Point", "coordinates": [ 113.219164, 23.138516 ] } },
{ "type": "Feature", "properties": { "NAME": "�ڵ���վ", "KIND": "4082", "ADDRESS": "�㶫ʡ�����а�����ʯ����", "TELEPHONE": null }, "geometry": { "type": "Point", "coordinates": [ 113.220755, 23.194188 ] } },
{ "type": "Feature", "properties": { "NAME": "�������վ", "KIND": "4082", "ADDRESS": "�㶫ʡ�����а�����ʯ����", "TELEPHONE": null }, "geometry": { "type": "Point", "coordinates": [ 113.219967, 23.20237 ] } },
{ "type": "Feature", "properties": { "NAME": "����վ", "KIND": "4082", "ADDRESS": "�㶫ʡ�����а�����ʯ����", "TELEPHONE": null }, "geometry": { "type": "Point", "coordinates": [ 113.225845, 23.201541 ] } },
{ "type": "Feature", "properties": { "NAME": "���˼���վ", "KIND": "4082", "ADDRESS": "�㶫ʡ�����а�����ʯ����", "TELEPHONE": null }, "geometry": { "type": "Point", "coordinates": [ 113.221297, 23.198009 ] } },
{ "type": "Feature", "properties": { "NAME": "��������վ", "KIND": "4082", "ADDRESS": "�㶫ʡ�����а�����ʯ����", "TELEPHONE": null }, "geometry": { "type": "Point", "coordinates": [ 113.22057, 23.181537 ] } },
{ "type": "Feature", "properties": { "NAME": "��̶����վ", "KIND": "4082", "ADDRESS": "�㶫ʡ�����а�����ʯ����", "TELEPHONE": null }, "geometry": { "type": "Point", "coordinates": [ 113.22962, 23.189023 ] } },
{ "type": "Feature", "properties": { "NAME": "��ʯ����վ", "KIND": "4082", "ADDRESS": "�㶫ʡ�����а�����������", "TELEPHONE": null }, "geometry": { "type": "Point", "coordinates": [ 113.241374, 23.266691 ] } },
{ "type": "Feature", "properties": { "NAME": "�³ǽ���վ", "KIND": "4082", "ADDRESS": "�㶫ʡ�����а�����������", "TELEPHONE": null }, "geometry": { "type": "Point", "coordinates": [ 113.253, 23.245901 ] } },
{ "type": "Feature", "properties": { "NAME": "ʨͷΧ����վ", "KIND": "4082", "ADDRESS": "�㶫ʡ�����а�����ͬ�½�", "TELEPHONE": null }, "geometry": { "type": "Point", "coordinates": [ 113.231272, 23.156638 ] } },
{ "type": "Feature", "properties": { "NAME": "���ۼ���վ", "KIND": "4082", "ADDRESS": "�㶫ʡ������������������", "TELEPHONE": null }, "geometry": { "type": "Point", "coordinates": [ 113.235533, 23.151997 ] } },
{ "type": "Feature", "properties": { "NAME": "վǰ·��վ", "KIND": "4082", "ADDRESS": "�㶫ʡ������������վǰ·����", "TELEPHONE": null }, "geometry": { "type": "Point", "coordinates": [ 113.240661, 23.141549 ] } },
{ "type": "Feature", "properties": { "NAME": "ƽɳ����վ", "KIND": "4082", "ADDRESS": "�㶫ʡ�����а�����������", "TELEPHONE": null }, "geometry": { "type": "Point", "coordinates": [ 113.25372, 23.240322 ] } },
{ "type": "Feature", "properties": { "NAME": "��é��վ", "KIND": "4082", "ADDRESS": "�㶫ʡ�����а�����ʯ����", "TELEPHONE": null }, "geometry": { "type": "Point", "coordinates": [ 113.255445, 23.232179 ] } },
{ "type": "Feature", "properties": { "NAME": "��������վ", "KIND": "4082", "ADDRESS": "�㶫ʡ�����а�����ʯ����", "TELEPHONE": null }, "geometry": { "type": "Point", "coordinates": [ 113.251191, 23.20774 ] } },
{ "type": "Feature", "properties": { "NAME": "ʯ����վ", "KIND": "4082", "ADDRESS": "�㶫ʡ�����а�����ʯ����", "TELEPHONE": null }, "geometry": { "type": "Point", "coordinates": [ 113.257776, 23.20924 ] } },
{ "type": "Feature", "properties": { "NAME": "Զ������վ", "KIND": "4082", "ADDRESS": "�㶫ʡ�����а�����������", "TELEPHONE": null }, "geometry": { "type": "Point", "coordinates": [ 113.244914, 23.176629 ] } },
{ "type": "Feature", "properties": { "NAME": "��Դ����վ", "KIND": "4082", "ADDRESS": "�㶫ʡ�����а�������Ԫ����", "TELEPHONE": null }, "geometry": { "type": "Point", "coordinates": [ 113.254938, 23.170229 ] } },
{ "type": "Feature", "properties": { "NAME": "��̨����վ", "KIND": "4082", "ADDRESS": "�㶫ʡ������Խ������԰��·������", "TELEPHONE": null }, "geometry": { "type": "Point", "coordinates": [ 113.248989, 23.158881 ] } },
{ "type": "Feature", "properties": { "NAME": "���ϼ���վ", "KIND": "4082", "ADDRESS": "�㶫ʡ������Խ�����Ƿ���", "TELEPHONE": null }, "geometry": { "type": "Point", "coordinates": [ 113.274556, 23.144947 ] } },
{ "type": "Feature", "properties": { "NAME": "�Խ�����վ", "KIND": "4082", "ADDRESS": "�㶫ʡ������Խ�����Ƿ���", "TELEPHONE": null }, "geometry": { "type": "Point", "coordinates": [ 113.289985, 23.148756 ] } },
{ "type": "Feature", "properties": { "NAME": "���ӱ�����վ", "KIND": "4082", "ADDRESS": "�㶫ʡ�������������ֺͽ�", "TELEPHONE": null }, "geometry": { "type": "Point", "coordinates": [ 113.311384, 23.143798 ] } },
{ "type": "Feature", "properties": { "NAME": "ʯϪ����վ", "KIND": "4082", "ADDRESS": "�㶫ʡ�����к�������ҵ�����У�����", "TELEPHONE": null }, "geometry": { "type": "Point", "coordinates": [ 113.27032, 23.075297 ] } },
{ "type": "Feature", "properties": { "NAME": "��̩��վ", "KIND": "4082", "ADDRESS": "�㶫ʡ�����к�������ʯͷ��", "TELEPHONE": null }, "geometry": { "type": "Point", "coordinates": [ 113.270988, 23.08488 ] } },
{ "type": "Feature", "properties": { "NAME": "�཭��վ", "KIND": "4082", "ADDRESS": "�㶫ʡ�����к�������ʯͷ��", "TELEPHONE": null }, "geometry": { "type": "Point", "coordinates": [ 113.275681, 23.080819 ] } },
{ "type": "Feature", "properties": { "NAME": "��������վ", "KIND": "4082", "ADDRESS": "�㶫ʡ�����к������½���", "TELEPHONE": null }, "geometry": { "type": "Point", "coordinates": [ 113.280319, 23.067534 ] } },
{ "type": "Feature", "properties": { "NAME": "��������վ", "KIND": "4082", "ADDRESS": "�㶫ʡ�����з�خ����ʯ��", "TELEPHONE": null }, "geometry": { "type": "Point", "coordinates": [ 113.274248, 23.049083 ] } },
{ "type": "Feature", "properties": { "NAME": "������վ", "KIND": "4082", "ADDRESS": "�㶫ʡ�����з�خ����ʯ��", "TELEPHONE": null }, "geometry": { "type": "Point", "coordinates": [ 113.30157, 23.009323 ] } },
{ "type": "Feature", "properties": { "NAME": "ڷ�ؼ���վ", "KIND": "4082", "ADDRESS": "�㶫ʡ�����з�خ���Ӵ���", "TELEPHONE": null }, "geometry": { "type": "Point", "coordinates": [ 113.307509, 22.979551 ] } },
{ "type": "Feature", "properties": { "NAME": "���Ӷ�����վ", "KIND": "4082", "ADDRESS": "�㶫ʡ�����з�خ���Ӵ���", "TELEPHONE": null }, "geometry": { "type": "Point", "coordinates": [ 113.287033, 22.961385 ] } },
{ "type": "Feature", "properties": { "NAME": "����������վ", "KIND": "4082", "ADDRESS": "�㶫ʡ�����з�خ���Ӵ���", "TELEPHONE": null }, "geometry": { "type": "Point", "coordinates": [ 113.286517, 22.96164 ] } },
{ "type": "Feature", "properties": { "NAME": "��ɽ����վ", "KIND": "4082", "ADDRESS": "�㶫ʡ�����з�خ���Ӵ���", "TELEPHONE": null }, "geometry": { "type": "Point", "coordinates": [ 113.29126, 22.965495 ] } },
{ "type": "Feature", "properties": { "NAME": "��Ϫ�ż��ͼ���վ", "KIND": "4082", "ADDRESS": "�㶫ʡ�����к���������·����", "TELEPHONE": null }, "geometry": { "type": "Point", "coordinates": [ 113.297021, 23.066636 ] } },
{ "type": "Feature", "properties": { "NAME": "�������������վ", "KIND": "4082", "ADDRESS": "�㶫ʡ�����к������½���", "TELEPHONE": null }, "geometry": { "type": "Point", "coordinates": [ 113.339742, 23.064495 ] } },
{ "type": "Feature", "properties": { "NAME": "����������վ", "KIND": "4082", "ADDRESS": "�㶫ʡ�����к������½���", "TELEPHONE": null }, "geometry": { "type": "Point", "coordinates": [ 113.338715, 23.064534 ] } },
{ "type": "Feature", "properties": { "NAME": "��ï����վ", "KIND": "4082", "ADDRESS": "�㶫ʡ�����к������½���", "TELEPHONE": null }, "geometry": { "type": "Point", "coordinates": [ 113.304993, 23.07025 ] } },
{ "type": "Feature", "properties": { "NAME": "�����������վ", "KIND": "4082", "ADDRESS": "�㶫ʡ�����к������½���", "TELEPHONE": null }, "geometry": { "type": "Point", "coordinates": [ 113.341325, 23.080689 ] } },
{ "type": "Feature", "properties": { "NAME": "��ʯ����վ", "KIND": "4082", "ADDRESS": "�㶫ʡ�����з�خ����ʯ��", "TELEPHONE": null }, "geometry": { "type": "Point", "coordinates": [ 113.307988, 23.020427 ] } },
{ "type": "Feature", "properties": { "NAME": "�ϝ]����վ", "KIND": "4082", "ADDRESS": "�㶫ʡ�����з�خ����ʯ��", "TELEPHONE": null }, "geometry": { "type": "Point", "coordinates": [ 113.306088, 23.039619 ] } },
{ "type": "Feature", "properties": { "NAME": "ʯ������վ", "KIND": "4082", "ADDRESS": "�㶫ʡ�����з�خ����ʯ��", "TELEPHONE": null }, "geometry": { "type": "Point", "coordinates": [ 113.30661, 23.039658 ] } },
{ "type": "Feature", "properties": { "NAME": "���ʶ���վ", "KIND": "4082", "ADDRESS": "�㶫ʡ�����з�خ���ϴ���", "TELEPHONE": null }, "geometry": { "type": "Point", "coordinates": [ 113.342271, 23.000934 ] } },
{ "type": "Feature", "properties": { "NAME": "������վ", "KIND": "4082", "ADDRESS": "�㶫ʡ�����з�خ�����Ž�", "TELEPHONE": null }, "geometry": { "type": "Point", "coordinates": [ 113.357188, 22.979395 ] } },
{ "type": "Feature", "properties": { "NAME": "������վ", "KIND": "4082", "ADDRESS": "�㶫ʡ�����з�خ�����Ž�", "TELEPHONE": null }, "geometry": { "type": "Point", "coordinates": [ 113.357716, 22.980619 ] } },
{ "type": "Feature", "properties": { "NAME": "���Ƽ���վ", "KIND": "4082", "ADDRESS": "�㶫ʡ�����з�خ��ɳ����", "TELEPHONE": null }, "geometry": { "type": "Point", "coordinates": [ 113.289113, 22.892027 ] } },
{ "type": "Feature", "properties": { "NAME": "������վ", "KIND": "4082", "ADDRESS": "�㶫ʡ�����з�خ��ɳ����", "TELEPHONE": null }, "geometry": { "type": "Point", "coordinates": [ 113.312505, 22.894559 ] } },
{ "type": "Feature", "properties": { "NAME": "ɳ������վ", "KIND": "4082", "ADDRESS": "�㶫ʡ�����з�خ��ɳ����", "TELEPHONE": null }, "geometry": { "type": "Point", "coordinates": [ 113.329803, 22.898513 ] } },
{ "type": "Feature", "properties": { "NAME": "��Ϫ��վ", "KIND": "4082", "ADDRESS": "�㶫ʡ���������������]��", "TELEPHONE": null }, "geometry": { "type": "Point", "coordinates": [ 113.19231, 23.069876 ] } },
{ "type": "Feature", "properties": { "NAME": "��������վ", "KIND": "4082", "ADDRESS": "�㶫ʡ��������������Ϫ���������", "TELEPHONE": null }, "geometry": { "type": "Point", "coordinates": [ 113.208475, 23.074565 ] } },
{ "type": "Feature", "properties": { "NAME": "�ڵ���վ", "KIND": "4082", "ADDRESS": "�㶫ʡ���������������]��", "TELEPHONE": null }, "geometry": { "type": "Point", "coordinates": [ 113.211065, 23.049195 ] } },
{ "type": "Feature", "properties": { "NAME": "�����վ", "KIND": "4082", "ADDRESS": "�㶫ʡ���������������ش����ϣ�����", "TELEPHONE": null }, "geometry": { "type": "Point", "coordinates": [ 113.217155, 23.054773 ] } },
{ "type": "Feature", "properties": { "NAME": "����԰��վ", "KIND": "4082", "ADDRESS": "�㶫ʡ��������������Ϫ�������", "TELEPHONE": null }, "geometry": { "type": "Point", "coordinates": [ 113.222325, 23.077847 ] } },
{ "type": "Feature", "properties": { "NAME": "����������վ", "KIND": "4082", "ADDRESS": "�㶫ʡ���������������ѽ�", "TELEPHONE": null }, "geometry": { "type": "Point", "coordinates": [ 113.228119, 23.095933 ] } },
{ "type": "Feature", "properties": { "NAME": "������վ", "KIND": "4082", "ADDRESS": "�㶫ʡ�������������׺׶���", "TELEPHONE": null }, "geometry": { "type": "Point", "coordinates": [ 113.232797, 23.073284 ] } },
{ "type": "Feature", "properties": { "NAME": "�ӿڼ���վ", "KIND": "4082", "ADDRESS": "�㶫ʡ���������������]��", "TELEPHONE": null }, "geometry": { "type": "Point", "coordinates": [ 113.228093, 23.072512 ] } },
{ "type": "Feature", "properties": { "NAME": "��ҵ�������վ", "KIND": "4082", "ADDRESS": "�㶫ʡ�����к�����������", "TELEPHONE": null }, "geometry": { "type": "Point", "coordinates": [ 113.249155, 23.098988 ] } },
{ "type": "Feature", "properties": { "NAME": "���ּ���վ", "KIND": "4082", "ADDRESS": "�㶫ʡ�����з�خ�����Ž�", "TELEPHONE": null }, "geometry": { "type": "Point", "coordinates": [ 113.372668, 22.953818 ] } },
{ "type": "Feature", "properties": { "NAME": "��������վ", "KIND": "4082", "ADDRESS": "�㶫ʡ�����з�خ��ɳ����", "TELEPHONE": null }, "geometry": { "type": "Point", "coordinates": [ 113.342344, 22.918133 ] } },
{ "type": "Feature", "properties": { "NAME": "����ͨ������վ", "KIND": "4082", "ADDRESS": "�㶫ʡ�����л������»���", "TELEPHONE": null }, "geometry": { "type": "Point", "coordinates": [ 113.170982, 23.38186 ] } },
{ "type": "Feature", "properties": { "NAME": "������վ", "KIND": "4082", "ADDRESS": "�㶫ʡ�����л�����ʨ����", "TELEPHONE": null }, "geometry": { "type": "Point", "coordinates": [ 113.191422, 23.427766 ] } },
{ "type": "Feature", "properties": { "NAME": "����ӿ����վ", "KIND": "4082", "ADDRESS": "�㶫ʡ�����л�����ʨ����", "TELEPHONE": null }, "geometry": { "type": "Point", "coordinates": [ 113.182912, 23.444115 ] } },
{ "type": "Feature", "properties": { "NAME": "�㻨���ż���վ", "KIND": "4082", "ADDRESS": "�㶫ʡ�����л������»���", "TELEPHONE": null }, "geometry": { "type": "Point", "coordinates": [ 113.186209, 23.377732 ] } },
{ "type": "Feature", "properties": { "NAME": "��������վ", "KIND": "4082", "ADDRESS": "�㶫ʡ�����л������»���", "TELEPHONE": null }, "geometry": { "type": "Point", "coordinates": [ 113.184607, 23.38421 ] } },
{ "type": "Feature", "properties": { "NAME": "�»�������վ", "KIND": "4082", "ADDRESS": "�㶫ʡ�����л������»���", "TELEPHONE": null }, "geometry": { "type": "Point", "coordinates": [ 113.189538, 23.380636 ] } },
{ "type": "Feature", "properties": { "NAME": "�д�����վ", "KIND": "4082", "ADDRESS": "�㶫ʡ�����л������»���", "TELEPHONE": null }, "geometry": { "type": "Point", "coordinates": [ 113.194178, 23.373142 ] } },
{ "type": "Feature", "properties": { "NAME": "������վ", "KIND": "4082", "ADDRESS": "�㶫ʡ�����а�������ɽ��", "TELEPHONE": null }, "geometry": { "type": "Point", "coordinates": [ 113.200593, 23.336034 ] } },
{ "type": "Feature", "properties": { "NAME": "�»�����վ", "KIND": "4082", "ADDRESS": "�㶫ʡ�����л������»���", "TELEPHONE": null }, "geometry": { "type": "Point", "coordinates": [ 113.212125, 23.374853 ] } },
{ "type": "Feature", "properties": { "NAME": "᯾�����վ", "KIND": "4082", "ADDRESS": "�㶫ʡ�����л�����������", "TELEPHONE": null }, "geometry": { "type": "Point", "coordinates": [ 113.221431, 23.354253 ] } },
{ "type": "Feature", "properties": { "NAME": "�ǵ�����վ", "KIND": "4082", "ADDRESS": "�㶫ʡ�����л�����ʨ����", "TELEPHONE": null }, "geometry": { "type": "Point", "coordinates": [ 113.210198, 23.429345 ] } },
{ "type": "Feature", "properties": { "NAME": "��С����վ", "KIND": "4082", "ADDRESS": "�㶫ʡ�����а�����������", "TELEPHONE": null }, "geometry": { "type": "Point", "coordinates": [ 113.208937, 23.274043 ] } },
{ "type": "Feature", "properties": { "NAME": "�������վ", "KIND": "4082", "ADDRESS": "�㶫ʡ�����а�����������", "TELEPHONE": null }, "geometry": { "type": "Point", "coordinates": [ 113.234071, 23.301726 ] } },
{ "type": "Feature", "properties": { "NAME": "������վ", "KIND": "4082", "ADDRESS": "�㶫ʡ�����а�����������", "TELEPHONE": null }, "geometry": { "type": "Point", "coordinates": [ 113.238367, 23.283748 ] } },
{ "type": "Feature", "properties": { "NAME": "������վ", "KIND": "4082", "ADDRESS": "�㶫ʡ�����л������»���", "TELEPHONE": null }, "geometry": { "type": "Point", "coordinates": [ 113.223182, 23.350852 ] } },
{ "type": "Feature", "properties": { "NAME": "����ɽ����վ", "KIND": "4082", "ADDRESS": "�㶫ʡ�����л������»���", "TELEPHONE": null }, "geometry": { "type": "Point", "coordinates": [ 113.212804, 23.389136 ] } },
{ "type": "Feature", "properties": { "NAME": "���Ǽ���վ", "KIND": "4082", "ADDRESS": "�㶫ʡ�����л�����ʨ����", "TELEPHONE": null }, "geometry": { "type": "Point", "coordinates": [ 113.216248, 23.450787 ] } },
{ "type": "Feature", "properties": { "NAME": "�Ǳ�����վ", "KIND": "4082", "ADDRESS": "�㶫ʡ�����л������»���", "TELEPHONE": null }, "geometry": { "type": "Point", "coordinates": [ 113.221083, 23.38551 ] } },
{ "type": "Feature", "properties": { "NAME": "��ʯ����վ", "KIND": "4082", "ADDRESS": "�㶫ʡ�����л������»���", "TELEPHONE": null }, "geometry": { "type": "Point", "coordinates": [ 113.222888, 23.382917 ] } },
{ "type": "Feature", "properties": { "NAME": "��������վ", "KIND": "4082", "ADDRESS": "�㶫ʡ�����л�������ɽ��", "TELEPHONE": null }, "geometry": { "type": "Point", "coordinates": [ 113.218815, 23.463733 ] } },
{ "type": "Feature", "properties": { "NAME": "������վ", "KIND": "4082", "ADDRESS": "�㶫ʡ�����л������»���", "TELEPHONE": null }, "geometry": { "type": "Point", "coordinates": [ 113.226622, 23.389612 ] } },
{ "type": "Feature", "properties": { "NAME": "������վ", "KIND": "4082", "ADDRESS": "�㶫ʡ�����л�����������", "TELEPHONE": null }, "geometry": { "type": "Point", "coordinates": [ 113.274834, 23.506539 ] } },
{ "type": "Feature", "properties": { "NAME": "��ƽ�ܼ���վ", "KIND": "4082", "ADDRESS": "�㶫ʡ�������������˻���", "TELEPHONE": null }, "geometry": { "type": "Point", "coordinates": [ 113.316437, 23.16306 ] } },
{ "type": "Feature", "properties": { "NAME": "���ϼ���վ", "KIND": "4082", "ADDRESS": "�㶫ʡ�����а�����������", "TELEPHONE": null }, "geometry": { "type": "Point", "coordinates": [ 113.259936, 23.214278 ] } },
{ "type": "Feature", "properties": { "NAME": "���Ǹڼ���վ", "KIND": "4082", "ADDRESS": "�㶫ʡ�����а�����������", "TELEPHONE": null }, "geometry": { "type": "Point", "coordinates": [ 113.278594, 23.244439 ] } },
{ "type": "Feature", "properties": { "NAME": "���Ǽ���վ", "KIND": "4082", "ADDRESS": "�㶫ʡ�����а�����ͬ����", "TELEPHONE": null }, "geometry": { "type": "Point", "coordinates": [ 113.286981, 23.216336 ] } },
{ "type": "Feature", "properties": { "NAME": "������վ", "KIND": "4082", "ADDRESS": "�㶫ʡ�����а�����������", "TELEPHONE": null }, "geometry": { "type": "Point", "coordinates": [ 113.280936, 23.199992 ] } },
{ "type": "Feature", "properties": { "NAME": "��̩����վ", "KIND": "4082", "ADDRESS": "�㶫ʡ�����а�����ͬ����", "TELEPHONE": null }, "geometry": { "type": "Point", "coordinates": [ 113.300895, 23.236081 ] } },
{ "type": "Feature", "properties": { "NAME": "��·����վ", "KIND": "4082", "ADDRESS": "�㶫ʡ�����а�����ͬ����", "TELEPHONE": null }, "geometry": { "type": "Point", "coordinates": [ 113.303063, 23.241256 ] } },
{ "type": "Feature", "properties": { "NAME": "ͬ�ͼ���վ", "KIND": "4082", "ADDRESS": "�㶫ʡ�����а�����ͬ����", "TELEPHONE": null }, "geometry": { "type": "Point", "coordinates": [ 113.321476, 23.203801 ] } },
{ "type": "Feature", "properties": { "NAME": "÷��԰����վ", "KIND": "4082", "ADDRESS": "�㶫ʡ�����а���������ɽ", "TELEPHONE": null }, "geometry": { "type": "Point", "coordinates": [ 113.314806, 23.180974 ] } },
{ "type": "Feature", "properties": { "NAME": "ɳ̫����վ", "KIND": "4082", "ADDRESS": "�㶫ʡ�������������˻���", "TELEPHONE": null }, "geometry": { "type": "Point", "coordinates": [ 113.322435, 23.172935 ] } },
{ "type": "Feature", "properties": { "NAME": "��Ϫ��վ", "KIND": "4082", "ADDRESS": "�㶫ʡ�����а�����ͬ����", "TELEPHONE": null }, "geometry": { "type": "Point", "coordinates": [ 113.328232, 23.183757 ] } },
{ "type": "Feature", "properties": { "NAME": "��԰������վ", "KIND": "4082", "ADDRESS": "�㶫ʡ��������������ɽ��", "TELEPHONE": null }, "geometry": { "type": "Point", "coordinates": [ 113.335985, 23.149076 ] } },
{ "type": "Feature", "properties": { "NAME": "������վ", "KIND": "4082", "ADDRESS": "�㶫ʡ�������������˻���", "TELEPHONE": null }, "geometry": { "type": "Point", "coordinates": [ 113.331722, 23.169375 ] } },
{ "type": "Feature", "properties": { "NAME": "���ӻ��¼���վ", "KIND": "4082", "ADDRESS": "�㶫ʡ��������������Դ·������ʱ", "TELEPHONE": null }, "geometry": { "type": "Point", "coordinates": [ 113.346472, 23.182993 ] } },
{ "type": "Feature", "properties": { "NAME": "����վ", "KIND": "4082", "ADDRESS": "�㶫ʡ�����дӻ�����ͷ��", "TELEPHONE": null }, "geometry": { "type": "Point", "coordinates": [ 113.419808, 23.621249 ] } },
{ "type": "Feature", "properties": { "NAME": "������վ", "KIND": "4082", "ADDRESS": "�㶫ʡ�����дӻ�����̶��", "TELEPHONE": null }, "geometry": { "type": "Point", "coordinates": [ 113.408744, 23.703176 ] } },
{ "type": "Feature", "properties": { "NAME": "�ڵ���վ", "KIND": "4082", "ADDRESS": "�㶫ʡ�����дӻ�����ͷ��", "TELEPHONE": null }, "geometry": { "type": "Point", "coordinates": [ 113.441113, 23.60384 ] } },
{ "type": "Feature", "properties": { "NAME": "������վ", "KIND": "4082", "ADDRESS": "�㶫ʡ�����дӻ���������", "TELEPHONE": null }, "geometry": { "type": "Point", "coordinates": [ 113.45542, 23.591906 ] } },
{ "type": "Feature", "properties": { "NAME": "��Ҥ�ڷ���������վ��վ", "KIND": "4082", "ADDRESS": "�㶫ʡ�����дӻ�����ͷ��", "TELEPHONE": null }, "geometry": { "type": "Point", "coordinates": [ 113.457893, 23.616209 ] } },
{ "type": "Feature", "properties": { "NAME": "��Ҥ�ڷ���������վ��վ", "KIND": "4082", "ADDRESS": "�㶫ʡ�����дӻ�����ͷ��", "TELEPHONE": null }, "geometry": { "type": "Point", "coordinates": [ 113.457081, 23.614901 ] } },
{ "type": "Feature", "properties": { "NAME": "�ɶ�����վ", "KIND": "4082", "ADDRESS": "�㶫ʡ�����дӻ���̫ƽ��", "TELEPHONE": null }, "geometry": { "type": "Point", "coordinates": [ 113.513257, 23.425085 ] } },
{ "type": "Feature", "properties": { "NAME": "�����վ", "KIND": "4082", "ADDRESS": "�㶫ʡ�����дӻ���������", "TELEPHONE": null }, "geometry": { "type": "Point", "coordinates": [ 113.512648, 23.477401 ] } },
{ "type": "Feature", "properties": { "NAME": "˳����վ", "KIND": "4082", "ADDRESS": "�㶫ʡ�����дӻ���������", "TELEPHONE": null }, "geometry": { "type": "Point", "coordinates": [ 113.518969, 23.573865 ] } },
{ "type": "Feature", "properties": { "NAME": "�½�����վ", "KIND": "4082", "ADDRESS": "�㶫ʡ������������ɳ����", "TELEPHONE": null }, "geometry": { "type": "Point", "coordinates": [ 113.366954, 23.195114 ] } },
{ "type": "Feature", "properties": { "NAME": "�˴���վ", "KIND": "4082", "ADDRESS": "�㶫ʡ������������ɳ����", "TELEPHONE": null }, "geometry": { "type": "Point", "coordinates": [ 113.377657, 23.194428 ] } },
{ "type": "Feature", "properties": { "NAME": "��������վ", "KIND": "4082", "ADDRESS": "�㶫ʡ������������ɳ����", "TELEPHONE": null }, "geometry": { "type": "Point", "coordinates": [ 113.370439, 23.193349 ] } },
{ "type": "Feature", "properties": { "NAME": "���˼���վ", "KIND": "4082", "ADDRESS": "�㶫ʡ�������ܸ����ܸ���", "TELEPHONE": null }, "geometry": { "type": "Point", "coordinates": [ 113.424367, 23.192346 ] } },
{ "type": "Feature", "properties": { "NAME": "�𻪼���վ", "KIND": "4082", "ADDRESS": "�㶫ʡ�������ܸ����ܸ���", "TELEPHONE": null }, "geometry": { "type": "Point", "coordinates": [ 113.428943, 23.191126 ] } },
{ "type": "Feature", "properties": { "NAME": "��ͨ����վ", "KIND": "4082", "ADDRESS": "�㶫ʡ�������ܸ����ܸ���", "TELEPHONE": null }, "geometry": { "type": "Point", "coordinates": [ 113.4275, 23.190347 ] } },
{ "type": "Feature", "properties": { "NAME": "�����Ϸ�����վ", "KIND": "4082", "ADDRESS": "�㶫ʡ������������������", "TELEPHONE": null }, "geometry": { "type": "Point", "coordinates": [ 113.400534, 23.146262 ] } },
{ "type": "Feature", "properties": { "NAME": "������վ", "KIND": "4082", "ADDRESS": "�㶫ʡ������������������", "TELEPHONE": null }, "geometry": { "type": "Point", "coordinates": [ 113.402951, 23.152513 ] } },
{ "type": "Feature", "properties": { "NAME": "����·����վ", "KIND": "4082", "ADDRESS": "�㶫ʡ�����к�����ɳ԰��", "TELEPHONE": null }, "geometry": { "type": "Point", "coordinates": [ 113.264735, 23.090048 ] } },
{ "type": "Feature", "properties": { "NAME": "���ڼ���վ", "KIND": "4082", "ADDRESS": "�㶫ʡ�����к���������·��", "TELEPHONE": null }, "geometry": { "type": "Point", "coordinates": [ 113.270201, 23.090015 ] } },
{ "type": "Feature", "properties": { "NAME": "���뺣ӡ����վ", "KIND": "4082", "ADDRESS": "�㶫ʡ�����к����������", "TELEPHONE": null }, "geometry": { "type": "Point", "coordinates": [ 113.278552, 23.10233 ] } },
{ "type": "Feature", "properties": { "NAME": "ũ����·����վ", "KIND": "4082", "ADDRESS": "�㶫ʡ������Խ����ũ�ֽ�", "TELEPHONE": null }, "geometry": { "type": "Point", "coordinates": [ 113.290247, 23.128806 ] } },
{ "type": "Feature", "properties": { "NAME": "��ɳ���Ӫ����վ", "KIND": "4082", "ADDRESS": "�㶫ʡ������Խ������ɳ����ͨ·", "TELEPHONE": null }, "geometry": { "type": "Point", "coordinates": [ 113.292055, 23.113781 ] } },
{ "type": "Feature", "properties": { "NAME": "�齭������վ", "KIND": "4082", "ADDRESS": "�㶫ʡ������������ɳ����", "TELEPHONE": null }, "geometry": { "type": "Point", "coordinates": [ 113.310221, 23.119535 ] } },
{ "type": "Feature", "properties": { "NAME": "����վ", "KIND": "4082", "ADDRESS": "�㶫ʡ�����к��������ڽ�", "TELEPHONE": null }, "geometry": { "type": "Point", "coordinates": [ 113.31839, 23.100301 ] } },
{ "type": "Feature", "properties": { "NAME": "�¸۶���վ", "KIND": "4082", "ADDRESS": "�㶫ʡ�����к������¸۶�·������", "TELEPHONE": null }, "geometry": { "type": "Point", "coordinates": [ 113.336232, 23.100778 ] } },
{ "type": "Feature", "properties": { "NAME": "���ݳ����Ӫ����վ", "KIND": "4082", "ADDRESS": "�㶫ʡ���������������Ҵ��������ʱ", "TELEPHONE": null }, "geometry": { "type": "Point", "coordinates": [ 113.376877, 23.120895 ] } },
{ "type": "Feature", "properties": { "NAME": "��������վ", "KIND": "4082", "ADDRESS": "�㶫ʡ������������Ա����", "TELEPHONE": null }, "geometry": { "type": "Point", "coordinates": [ 113.365156, 23.123643 ] } },
{ "type": "Feature", "properties": { "NAME": "��������վ", "KIND": "4082", "ADDRESS": "�㶫ʡ��������������ɽ���������", "TELEPHONE": null }, "geometry": { "type": "Point", "coordinates": [ 113.383562, 23.127788 ] } },
{ "type": "Feature", "properties": { "NAME": "���Լ���վ", "KIND": "4082", "ADDRESS": "�㶫ʡ��������������ɽ�����У�������ʱ", "TELEPHONE": null }, "geometry": { "type": "Point", "coordinates": [ 113.39567, 23.127163 ] } },
{ "type": "Feature", "properties": { "NAME": "���Լ���վ", "KIND": "4082", "ADDRESS": "�㶫ʡ��������������ɽ�����У�����", "TELEPHONE": null }, "geometry": { "type": "Point", "coordinates": [ 113.400261, 23.123396 ] } },
{ "type": "Feature", "properties": { "NAME": "�������վ", "KIND": "4082", "ADDRESS": "�㶫ʡ�����л�������ɳ��", "TELEPHONE": null }, "geometry": { "type": "Point", "coordinates": [ 113.423636, 23.112855 ] } },
{ "type": "Feature", "properties": { "NAME": "������վ", "KIND": "4082", "ADDRESS": "�㶫ʡ��������������ɽ�����У�����", "TELEPHONE": null }, "geometry": { "type": "Point", "coordinates": [ 113.403992, 23.122656 ] } },
{ "type": "Feature", "properties": { "NAME": "�����ƴ�����վ", "KIND": "4082", "ADDRESS": "�㶫ʡ��������������ɽ�����У�������", "TELEPHONE": null }, "geometry": { "type": "Point", "coordinates": [ 113.407654, 23.122031 ] } },
{ "type": "Feature", "properties": { "NAME": "������վ", "KIND": "4082", "ADDRESS": "�㶫ʡ��������������ɽ�����У�������", "TELEPHONE": null }, "geometry": { "type": "Point", "coordinates": [ 113.416905, 23.117813 ] } },
{ "type": "Feature", "properties": { "NAME": "��ڱ���վ", "KIND": "4082", "ADDRESS": "�㶫ʡ�����л�������ɳ��", "TELEPHONE": null }, "geometry": { "type": "Point", "coordinates": [ 113.422659, 23.114658 ] } },
{ "type": "Feature", "properties": { "NAME": "��ɽ����վ", "KIND": "4082", "ADDRESS": "�㶫ʡ������������������", "TELEPHONE": null }, "geometry": { "type": "Point", "coordinates": [ 113.421356, 23.13103 ] } },
{ "type": "Feature", "properties": { "NAME": "��Ϫ����վ", "KIND": "4082", "ADDRESS": "�㶫ʡ�����л��������ҽ�", "TELEPHONE": null }, "geometry": { "type": "Point", "coordinates": [ 113.452237, 23.104149 ] } },
{ "type": "Feature", "properties": { "NAME": "��Դ��վ", "KIND": "4082", "ADDRESS": "�㶫ʡ�����л�������ɳ��", "TELEPHONE": null }, "geometry": { "type": "Point", "coordinates": [ 113.449125, 23.126029 ] } },
{ "type": "Feature", "properties": { "NAME": "���黪�¼���վ", "KIND": "4082", "ADDRESS": "�㶫ʡ�����л�������ɽ��", "TELEPHONE": null }, "geometry": { "type": "Point", "coordinates": [ 113.462587, 23.100232 ] } },
{ "type": "Feature", "properties": { "NAME": "�ĳ廪�¼���վ", "KIND": "4082", "ADDRESS": "�㶫ʡ�����л�������ɽ��", "TELEPHONE": null }, "geometry": { "type": "Point", "coordinates": [ 113.462087, 23.09967 ] } },
{ "type": "Feature", "properties": { "NAME": "������¼���վ", "KIND": "4082", "ADDRESS": "�㶫ʡ�����л�������ɳ��", "TELEPHONE": null }, "geometry": { "type": "Point", "coordinates": [ 113.468336, 23.097112 ] } },
{ "type": "Feature", "properties": { "NAME": "�¹���վ", "KIND": "4082", "ADDRESS": "�㶫ʡ�����л�������ɽ��", "TELEPHONE": null }, "geometry": { "type": "Point", "coordinates": [ 113.483519, 23.118116 ] } },
{ "type": "Feature", "properties": { "NAME": "��̩����վ", "KIND": "4082", "ADDRESS": "�㶫ʡ�����л�������ɳ��", "TELEPHONE": null }, "geometry": { "type": "Point", "coordinates": [ 113.486533, 23.089698 ] } },
{ "type": "Feature", "properties": { "NAME": "��̩����վ", "KIND": "4082", "ADDRESS": "�㶫ʡ�����л�������ɳ��", "TELEPHONE": null }, "geometry": { "type": "Point", "coordinates": [ 113.486571, 23.0888 ] } },
{ "type": "Feature", "properties": { "NAME": "�����Ǽ���վ", "KIND": "4082", "ADDRESS": "�㶫ʡ�����л������ϸ���", "TELEPHONE": null }, "geometry": { "type": "Point", "coordinates": [ 113.5061, 23.085247 ] } },
{ "type": "Feature", "properties": { "NAME": "��������վ", "KIND": "4082", "ADDRESS": "�㶫ʡ�����з�خ�����Ž�", "TELEPHONE": null }, "geometry": { "type": "Point", "coordinates": [ 113.345281, 22.939855 ] } },
{ "type": "Feature", "properties": { "NAME": "�����վ", "KIND": "4082", "ADDRESS": "�㶫ʡ�����з�خ�����Ž�", "TELEPHONE": null }, "geometry": { "type": "Point", "coordinates": [ 113.335858, 22.971782 ] } },
{ "type": "Feature", "properties": { "NAME": "���ż���վ", "KIND": "4082", "ADDRESS": "�㶫ʡ�����з�خ�����Ž�", "TELEPHONE": null }, "geometry": { "type": "Point", "coordinates": [ 113.359228, 22.948854 ] } },
{ "type": "Feature", "properties": { "NAME": "��ɳ����վ", "KIND": "4082", "ADDRESS": "�㶫ʡ�����з�خ�����Ž�", "TELEPHONE": null }, "geometry": { "type": "Point", "coordinates": [ 113.365344, 22.970118 ] } },
{ "type": "Feature", "properties": { "NAME": "ɳ��ũ����վ", "KIND": "4082", "ADDRESS": "�㶫ʡ�����з�خ�����Ž�", "TELEPHONE": null }, "geometry": { "type": "Point", "coordinates": [ 113.362869, 22.950833 ] } },
{ "type": "Feature", "properties": { "NAME": "��������վ", "KIND": "4082", "ADDRESS": "�㶫ʡ�����з�خ�����Ž�", "TELEPHONE": null }, "geometry": { "type": "Point", "coordinates": [ 113.378423, 22.952174 ] } },
{ "type": "Feature", "properties": { "NAME": "��������վ", "KIND": "4082", "ADDRESS": "�㶫ʡ�����з�خ�����Ž�", "TELEPHONE": null }, "geometry": { "type": "Point", "coordinates": [ 113.377842, 22.94268 ] } },
{ "type": "Feature", "properties": { "NAME": "�ź�����վ", "KIND": "4082", "ADDRESS": "�㶫ʡ�����з�خ���ϴ���", "TELEPHONE": null }, "geometry": { "type": "Point", "coordinates": [ 113.36147, 22.997399 ] } },
{ "type": "Feature", "properties": { "NAME": "ά����վ", "KIND": "4082", "ADDRESS": "�㶫ʡ�����з�خ���ϴ���", "TELEPHONE": null }, "geometry": { "type": "Point", "coordinates": [ 113.385912, 23.013068 ] } },
{ "type": "Feature", "properties": { "NAME": "��ͷ��վ", "KIND": "4082", "ADDRESS": "�㶫ʡ�����з�خ���ϴ���", "TELEPHONE": null }, "geometry": { "type": "Point", "coordinates": [ 113.400935, 23.023537 ] } },
{ "type": "Feature", "properties": { "NAME": "��ӿ����վ", "KIND": "4082", "ADDRESS": "�㶫ʡ�����з�خ��ɳ����", "TELEPHONE": null }, "geometry": { "type": "Point", "coordinates": [ 113.369122, 22.920323 ] } },
{ "type": "Feature", "properties": { "NAME": "���޼���վ", "KIND": "4082", "ADDRESS": "�㶫ʡ�����з�خ��������", "TELEPHONE": null }, "geometry": { "type": "Point", "coordinates": [ 113.383281, 22.935372 ] } },
{ "type": "Feature", "properties": { "NAME": "ɳ������վ", "KIND": "4082", "ADDRESS": "�㶫ʡ�����з�خ�����Ž�", "TELEPHONE": null }, "geometry": { "type": "Point", "coordinates": [ 113.382709, 22.934805 ] } },
{ "type": "Feature", "properties": { "NAME": "���¼���վ", "KIND": "4082", "ADDRESS": "�㶫ʡ�����з�خ���ϴ���", "TELEPHONE": null }, "geometry": { "type": "Point", "coordinates": [ 113.3844, 22.982261 ] } },
{ "type": "Feature", "properties": { "NAME": "������վ", "KIND": "4082", "ADDRESS": "�㶫ʡ�����з�خ��������", "TELEPHONE": null }, "geometry": { "type": "Point", "coordinates": [ 113.395713, 22.944478 ] } },
{ "type": "Feature", "properties": { "NAME": "���ż���վ", "KIND": "4082", "ADDRESS": "�㶫ʡ�����з�خ��������", "TELEPHONE": null }, "geometry": { "type": "Point", "coordinates": [ 113.407624, 22.938783 ] } },
{ "type": "Feature", "properties": { "NAME": "ʯ�˼���վ", "KIND": "4082", "ADDRESS": "�㶫ʡ�����з�خ��������", "TELEPHONE": null }, "geometry": { "type": "Point", "coordinates": [ 113.42097, 22.955549 ] } },
{ "type": "Feature", "properties": { "NAME": "������վ", "KIND": "4082", "ADDRESS": "�㶫ʡ�����з�خ��������", "TELEPHONE": null }, "geometry": { "type": "Point", "coordinates": [ 113.417174, 22.955432 ] } },
{ "type": "Feature", "properties": { "NAME": "ʯ������վ", "KIND": "4082", "ADDRESS": "�㶫ʡ�����з�خ��������", "TELEPHONE": null }, "geometry": { "type": "Point", "coordinates": [ 113.428424, 22.954968 ] } },
{ "type": "Feature", "properties": { "NAME": "��Ÿһ��վ", "KIND": "4082", "ADDRESS": "�㶫ʡ�����з�خ��ʯ����", "TELEPHONE": null }, "geometry": { "type": "Point", "coordinates": [ 113.434478, 22.951072 ] } },
{ "type": "Feature", "properties": { "NAME": "���޼���վ", "KIND": "4082", "ADDRESS": "�㶫ʡ�����л�����������", "TELEPHONE": null }, "geometry": { "type": "Point", "coordinates": [ 113.414909, 23.076063 ] } },
{ "type": "Feature", "properties": { "NAME": "���ż���վ", "KIND": "4082", "ADDRESS": "�㶫ʡ�����з�خ��������", "TELEPHONE": null }, "geometry": { "type": "Point", "coordinates": [ 113.446258, 22.987973 ] } },
{ "type": "Feature", "properties": { "NAME": "��������վ", "KIND": "4082", "ADDRESS": "�㶫ʡ�����з�خ��������", "TELEPHONE": null }, "geometry": { "type": "Point", "coordinates": [ 113.458446, 23.035709 ] } },
{ "type": "Feature", "properties": { "NAME": "����վ", "KIND": "4082", "ADDRESS": "�㶫ʡ�����з�خ��ɳ����", "TELEPHONE": null }, "geometry": { "type": "Point", "coordinates": [ 113.392477, 22.914454 ] } },
{ "type": "Feature", "properties": { "NAME": "ʯ��ũҵ����վ", "KIND": "4082", "ADDRESS": "�㶫ʡ�����з�خ��ʯ����", "TELEPHONE": null }, "geometry": { "type": "Point", "coordinates": [ 113.44479, 22.951371 ] } },
{ "type": "Feature", "properties": { "NAME": "�������վ", "KIND": "4082", "ADDRESS": "�㶫ʡ�����з�خ��ʯ����", "TELEPHONE": null }, "geometry": { "type": "Point", "coordinates": [ 113.451149, 22.945106 ] } },
{ "type": "Feature", "properties": { "NAME": "��Ÿ����վ", "KIND": "4082", "ADDRESS": "�㶫ʡ�����з�خ��ʯ����", "TELEPHONE": null }, "geometry": { "type": "Point", "coordinates": [ 113.437796, 22.941848 ] } },
{ "type": "Feature", "properties": { "NAME": "ʯ¥����վ", "KIND": "4082", "ADDRESS": "�㶫ʡ�����з�خ��ʯ¥��", "TELEPHONE": null }, "geometry": { "type": "Point", "coordinates": [ 113.474228, 22.967897 ] } },
{ "type": "Feature", "properties": { "NAME": "�����վ", "KIND": "4082", "ADDRESS": "�㶫ʡ�������ܸ����ܸ���", "TELEPHONE": null }, "geometry": { "type": "Point", "coordinates": [ 113.487926, 23.178363 ] } },
{ "type": "Feature", "properties": { "NAME": "����վ", "KIND": "4082", "ADDRESS": "�㶫ʡ�����л�������ɽ��", "TELEPHONE": null }, "geometry": { "type": "Point", "coordinates": [ 113.25441, 23.400894 ] } },
{ "type": "Feature", "properties": { "NAME": "�ڵ���վ", "KIND": "4082", "ADDRESS": "�㶫ʡ�����л�������ɽ��", "TELEPHONE": null }, "geometry": { "type": "Point", "coordinates": [ 113.273066, 23.448215 ] } },
{ "type": "Feature", "properties": { "NAME": "��ï��վ", "KIND": "4082", "ADDRESS": "�㶫ʡ�����л�������ɽ��", "TELEPHONE": null }, "geometry": { "type": "Point", "coordinates": [ 113.285065, 23.43911 ] } },
{ "type": "Feature", "properties": { "NAME": "�»�������վ", "KIND": "4082", "ADDRESS": "�㶫ʡ�����л������»���", "TELEPHONE": null }, "geometry": { "type": "Point", "coordinates": [ 113.29784, 23.395297 ] } },
{ "type": "Feature", "properties": { "NAME": "�»�������վ", "KIND": "4082", "ADDRESS": "�㶫ʡ�����л�����������", "TELEPHONE": null }, "geometry": { "type": "Point", "coordinates": [ 113.30383, 23.415329 ] } },
{ "type": "Feature", "properties": { "NAME": "��������վ", "KIND": "4082", "ADDRESS": "�㶫ʡ�����л�����������", "TELEPHONE": null }, "geometry": { "type": "Point", "coordinates": [ 113.323367, 23.438805 ] } },
{ "type": "Feature", "properties": { "NAME": "�˺͵ڶ���վ", "KIND": "4082", "ADDRESS": "�㶫ʡ�����а������˺���", "TELEPHONE": null }, "geometry": { "type": "Point", "coordinates": [ 113.310096, 23.373505 ] } },
{ "type": "Feature", "properties": { "NAME": "��������վ", "KIND": "4082", "ADDRESS": "�㶫ʡ�����л�����������", "TELEPHONE": null }, "geometry": { "type": "Point", "coordinates": [ 113.361361, 23.422133 ] } },
{ "type": "Feature", "properties": { "NAME": "�����վ", "KIND": "4082", "ADDRESS": "�㶫ʡ�����а����������", "TELEPHONE": null }, "geometry": { "type": "Point", "coordinates": [ 113.378198, 23.36664 ] } },
{ "type": "Feature", "properties": { "NAME": "�ϱ���վ", "KIND": "4082", "ADDRESS": "�㶫ʡ�����л�����������", "TELEPHONE": null }, "geometry": { "type": "Point", "coordinates": [ 113.395961, 23.430075 ] } },
{ "type": "Feature", "properties": { "NAME": "��ó��վ", "KIND": "4082", "ADDRESS": "�㶫ʡ�����л�����������", "TELEPHONE": null }, "geometry": { "type": "Point", "coordinates": [ 113.428351, 23.430534 ] } },
{ "type": "Feature", "properties": { "NAME": "����ͨ������վ", "KIND": "4082", "ADDRESS": "�㶫ʡ�����л�����������", "TELEPHONE": null }, "geometry": { "type": "Point", "coordinates": [ 113.423581, 23.429757 ] } },
{ "type": "Feature", "properties": { "NAME": "������վ", "KIND": "4082", "ADDRESS": "�㶫ʡ�����л�����������", "TELEPHONE": null }, "geometry": { "type": "Point", "coordinates": [ 113.451141, 23.433606 ] } },
{ "type": "Feature", "properties": { "NAME": "��ˮ��վ", "KIND": "4082", "ADDRESS": "�㶫ʡ�����а���������̶��", "TELEPHONE": null }, "geometry": { "type": "Point", "coordinates": [ 113.471531, 23.426875 ] } },
{ "type": "Feature", "properties": { "NAME": "���˶���վ", "KIND": "4082", "ADDRESS": "�㶫ʡ�����дӻ���̫ƽ��", "TELEPHONE": null }, "geometry": { "type": "Point", "coordinates": [ 113.482333, 23.439756 ] } },
{ "type": "Feature", "properties": { "NAME": "����һ��վ", "KIND": "4082", "ADDRESS": "�㶫ʡ�����дӻ���̫ƽ��", "TELEPHONE": null }, "geometry": { "type": "Point", "coordinates": [ 113.484766, 23.447852 ] } },
{ "type": "Feature", "properties": { "NAME": "������վ", "KIND": "4082", "ADDRESS": "�㶫ʡ�������ܸ���������", "TELEPHONE": null }, "geometry": { "type": "Point", "coordinates": [ 113.52306, 23.262029 ] } },
{ "type": "Feature", "properties": { "NAME": "�ͽ���վ", "KIND": "4082", "ADDRESS": "�㶫ʡ�������ܸ����ܸ���", "TELEPHONE": null }, "geometry": { "type": "Point", "coordinates": [ 113.544699, 23.201216 ] } },
{ "type": "Feature", "properties": { "NAME": "����վ", "KIND": "4082", "ADDRESS": "�㶫ʡ�������ܸ����ŷ���", "TELEPHONE": null }, "geometry": { "type": "Point", "coordinates": [ 113.511828, 23.358035 ] } },
{ "type": "Feature", "properties": { "NAME": "���ϼ���վ", "KIND": "4082", "ADDRESS": "�㶫ʡ��������ɳ����ɳ��", "TELEPHONE": null }, "geometry": { "type": "Point", "coordinates": [ 113.545795, 22.802659 ] } },
{ "type": "Feature", "properties": { "NAME": "�����޼���վ", "KIND": "4082", "ADDRESS": "�㶫ʡ��������ɳ�����۴��������", "TELEPHONE": null }, "geometry": { "type": "Point", "coordinates": [ 113.564413, 22.800561 ] } },
{ "type": "Feature", "properties": { "NAME": "��ʢ��վ", "KIND": "4082", "ADDRESS": "�㶫ʡ�������ܸ����ܸ���", "TELEPHONE": null }, "geometry": { "type": "Point", "coordinates": [ 113.528157, 23.13585 ] } },
{ "type": "Feature", "properties": { "NAME": "��̩��վ", "KIND": "4082", "ADDRESS": "�㶫ʡ�����л������ϸ���", "TELEPHONE": null }, "geometry": { "type": "Point", "coordinates": [ 113.52793, 23.091671 ] } },
{ "type": "Feature", "properties": { "NAME": "�ƺ�����վ", "KIND": "4082", "ADDRESS": "�㶫ʡ�������ܸ����ĸ۽�", "TELEPHONE": null }, "geometry": { "type": "Point", "coordinates": [ 113.519895, 23.064065 ] } },
{ "type": "Feature", "properties": { "NAME": "ͨ����վ", "KIND": "4082", "ADDRESS": "�㶫ʡ������������������", "TELEPHONE": null }, "geometry": { "type": "Point", "coordinates": [ 113.586437, 23.12508 ] } },
{ "type": "Feature", "properties": { "NAME": "������¼���վ", "KIND": "4082", "ADDRESS": "�㶫ʡ������������������", "TELEPHONE": null }, "geometry": { "type": "Point", "coordinates": [ 113.601456, 23.124398 ] } },
{ "type": "Feature", "properties": { "NAME": "��Դ��������վ", "KIND": "4082", "ADDRESS": "�㶫ʡ������������������", "TELEPHONE": null }, "geometry": { "type": "Point", "coordinates": [ 113.612182, 23.141527 ] } },
{ "type": "Feature", "properties": { "NAME": "�»�������վ", "KIND": "4082", "ADDRESS": "�㶫ʡ������������������", "TELEPHONE": null }, "geometry": { "type": "Point", "coordinates": [ 113.616094, 23.124402 ] } },
{ "type": "Feature", "properties": { "NAME": "�����վ", "KIND": "4082", "ADDRESS": "�㶫ʡ��������ɳ����ɳ��", "TELEPHONE": null }, "geometry": { "type": "Point", "coordinates": [ 113.560424, 22.756761 ] } },
{ "type": "Feature", "properties": { "NAME": "���ű���վ", "KIND": "4082", "ADDRESS": "�㶫ʡ��������ɳ����ɳ��", "TELEPHONE": null }, "geometry": { "type": "Point", "coordinates": [ 113.583066, 22.772615 ] } },
{ "type": "Feature", "properties": { "NAME": "��������վ", "KIND": "4082", "ADDRESS": "�㶫ʡ��������ɳ����ɳ��", "TELEPHONE": null }, "geometry": { "type": "Point", "coordinates": [ 113.582293, 22.770154 ] } },
{ "type": "Feature", "properties": { "NAME": "������վ", "KIND": "4082", "ADDRESS": "�㶫ʡ�������ܸ���������", "TELEPHONE": null }, "geometry": { "type": "Point", "coordinates": [ 113.55261, 23.273677 ] } },
{ "type": "Feature", "properties": { "NAME": "ӱ����վ", "KIND": "4082", "ADDRESS": "�㶫ʡ�������ܸ���������", "TELEPHONE": null }, "geometry": { "type": "Point", "coordinates": [ 113.584181, 23.286308 ] } },
{ "type": "Feature", "properties": { "NAME": "�����վ", "KIND": "4082", "ADDRESS": "�㶫ʡ�����������������", "TELEPHONE": null }, "geometry": { "type": "Point", "coordinates": [ 113.590286, 23.172267 ] } },
{ "type": "Feature", "properties": { "NAME": "������վ", "KIND": "4082", "ADDRESS": "�㶫ʡ������������������", "TELEPHONE": null }, "geometry": { "type": "Point", "coordinates": [ 113.633829, 23.283331 ] } },
{ "type": "Feature", "properties": { "NAME": "������վ", "KIND": "4082", "ADDRESS": "�㶫ʡ������������������", "TELEPHONE": null }, "geometry": { "type": "Point", "coordinates": [ 113.6593, 23.280649 ] } },
{ "type": "Feature", "properties": { "NAME": "��ɽ��վ", "KIND": "4082", "ADDRESS": "�㶫ʡ������������������", "TELEPHONE": null }, "geometry": { "type": "Point", "coordinates": [ 113.635057, 23.162566 ] } },
{ "type": "Feature", "properties": { "NAME": "����վ", "KIND": "4082", "ADDRESS": "�㶫ʡ������������������", "TELEPHONE": null }, "geometry": { "type": "Point", "coordinates": [ 113.639949, 23.12168 ] } },
{ "type": "Feature", "properties": { "NAME": "ɳ�ұ�����վ", "KIND": "4082", "ADDRESS": "�㶫ʡ������������ɳ����", "TELEPHONE": null }, "geometry": { "type": "Point", "coordinates": [ 113.672693, 23.192546 ] } },
{ "type": "Feature", "properties": { "NAME": "ɳ���ϼ���վ", "KIND": "4082", "ADDRESS": "�㶫ʡ������������ɳ����", "TELEPHONE": null }, "geometry": { "type": "Point", "coordinates": [ 113.670832, 23.190566 ] } },
{ "type": "Feature", "properties": { "NAME": "ɳͷ����վ", "KIND": "4082", "ADDRESS": "�㶫ʡ�������������ɴ���", "TELEPHONE": null }, "geometry": { "type": "Point", "coordinates": [ 113.696276, 23.183186 ] } },
{ "type": "Feature", "properties": { "NAME": "�������վ", "KIND": "4082", "ADDRESS": "�㶫ʡ�����������и�����", "TELEPHONE": null }, "geometry": { "type": "Point", "coordinates": [ 113.629975, 23.356173 ] } },
{ "type": "Feature", "properties": { "NAME": "������վ", "KIND": "4082", "ADDRESS": "�㶫ʡ������������������", "TELEPHONE": null }, "geometry": { "type": "Point", "coordinates": [ 113.676617, 23.278011 ] } },
{ "type": "Feature", "properties": { "NAME": "������վ", "KIND": "4082", "ADDRESS": "�㶫ʡ������������������", "TELEPHONE": null }, "geometry": { "type": "Point", "coordinates": [ 113.724664, 23.277479 ] } },
{ "type": "Feature", "properties": { "NAME": "������վ", "KIND": "4082", "ADDRESS": "�㶫ʡ������������ɳ����", "TELEPHONE": null }, "geometry": { "type": "Point", "coordinates": [ 113.666855, 23.168808 ] } },
{ "type": "Feature", "properties": { "NAME": "�����վ", "KIND": "4082", "ADDRESS": "�㶫ʡ������������������", "TELEPHONE": null }, "geometry": { "type": "Point", "coordinates": [ 113.753793, 23.247027 ] } },
{ "type": "Feature", "properties": { "NAME": "���˼���վ", "KIND": "4082", "ADDRESS": "�㶫ʡ������������������", "TELEPHONE": null }, "geometry": { "type": "Point", "coordinates": [ 113.750179, 23.282191 ] } },
{ "type": "Feature", "properties": { "NAME": "ɽ������վ", "KIND": "4082", "ADDRESS": "�㶫ʡ������������������", "TELEPHONE": null }, "geometry": { "type": "Point", "coordinates": [ 113.744828, 23.280803 ] } },
{ "type": "Feature", "properties": { "NAME": "ʯ����վ", "KIND": "4082", "ADDRESS": "�㶫ʡ������������ʯ̲��", "TELEPHONE": null }, "geometry": { "type": "Point", "coordinates": [ 113.777835, 23.182053 ] } },
{ "type": "Feature", "properties": { "NAME": "�����վ", "KIND": "4082", "ADDRESS": "�㶫ʡ������������С¥��", "TELEPHONE": null }, "geometry": { "type": "Point", "coordinates": [ 113.795721, 23.40427 ] } },
{ "type": "Feature", "properties": { "NAME": "��ͨ������վ", "KIND": "4082", "ADDRESS": "�㶫ʡ������������С¥��", "TELEPHONE": null }, "geometry": { "type": "Point", "coordinates": [ 113.786535, 23.416228 ] } },
{ "type": "Feature", "properties": { "NAME": "������վ", "KIND": "4082", "ADDRESS": "�㶫ʡ������������������", "TELEPHONE": null }, "geometry": { "type": "Point", "coordinates": [ 113.81008, 23.26276 ] } },
{ "type": "Feature", "properties": { "NAME": "�³Ǽ���վ", "KIND": "4082", "ADDRESS": "�㶫ʡ������������������", "TELEPHONE": null }, "geometry": { "type": "Point", "coordinates": [ 113.807693, 23.281817 ] } },
{ "type": "Feature", "properties": { "NAME": "���ϼ���վ", "KIND": "4082", "ADDRESS": "�㶫ʡ������������������", "TELEPHONE": null }, "geometry": { "type": "Point", "coordinates": [ 113.836094, 23.261016 ] } },
{ "type": "Feature", "properties": { "NAME": "��������վ", "KIND": "4082", "ADDRESS": "�㶫ʡ������������ɳׯ��", "TELEPHONE": null }, "geometry": { "type": "Point", "coordinates": [ 113.821917, 23.135411 ] } },
{ "type": "Feature", "properties": { "NAME": "�������վ", "KIND": "4082", "ADDRESS": "�㶫ʡ������������ʯ̲��", "TELEPHONE": null }, "geometry": { "type": "Point", "coordinates": [ 113.797686, 23.203569 ] } },
{ "type": "Feature", "properties": { "NAME": "������վ", "KIND": "4082", "ADDRESS": "�㶫ʡ������������������", "TELEPHONE": null }, "geometry": { "type": "Point", "coordinates": [ 113.853042, 23.202067 ] } },
{ "type": "Feature", "properties": { "NAME": "���������վ", "KIND": "4082", "ADDRESS": "�㶫ʡ������������������", "TELEPHONE": null }, "geometry": { "type": "Point", "coordinates": [ 113.857127, 23.213608 ] } },
{ "type": "Feature", "properties": { "NAME": "�˴�������վ", "KIND": "4082", "ADDRESS": "�㶫ʡ������������������", "TELEPHONE": null }, "geometry": { "type": "Point", "coordinates": [ 113.857925, 23.242336 ] } },
{ "type": "Feature", "properties": { "NAME": "С¥��վ", "KIND": "4082", "ADDRESS": "�㶫ʡ������������С¥��", "TELEPHONE": null }, "geometry": { "type": "Point", "coordinates": [ 113.826629, 23.379741 ] } },
{ "type": "Feature", "properties": { "NAME": "������վ", "KIND": "4082", "ADDRESS": "�㶫ʡ������������������", "TELEPHONE": null }, "geometry": { "type": "Point", "coordinates": [ 113.814952, 23.296762 ] } },
{ "type": "Feature", "properties": { "NAME": "�Ǳ�����վ", "KIND": "4082", "ADDRESS": "�㶫ʡ������������������", "TELEPHONE": null }, "geometry": { "type": "Point", "coordinates": [ 113.840251, 23.296899 ] } },
{ "type": "Feature", "properties": { "NAME": "��ԭ����վ", "KIND": "4082", "ADDRESS": "�㶫ʡ������������������", "TELEPHONE": null }, "geometry": { "type": "Point", "coordinates": [ 113.860426, 23.375744 ] } },
{ "type": "Feature", "properties": { "NAME": "������վ", "KIND": "4082", "ADDRESS": "�㶫ʡ������������������", "TELEPHONE": null }, "geometry": { "type": "Point", "coordinates": [ 113.88712, 23.414805 ] } },
{ "type": "Feature", "properties": { "NAME": "������վ", "KIND": "4082", "ADDRESS": "�㶫ʡ������������������", "TELEPHONE": null }, "geometry": { "type": "Point", "coordinates": [ 113.831816, 23.161574 ] } },
{ "type": "Feature", "properties": { "NAME": "�ڵ���վ", "KIND": "4082", "ADDRESS": "�㶫ʡ�����а������˺���", "TELEPHONE": null }, "geometry": { "type": "Point", "coordinates": [ 113.295366, 23.319526 ] } },
{ "type": "Feature", "properties": { "NAME": "�޴���վ", "KIND": "4082", "ADDRESS": "�㶫ʡ�����а�����������", "TELEPHONE": null }, "geometry": { "type": "Point", "coordinates": [ 113.354949, 23.329156 ] } },
{ "type": "Feature", "properties": { "NAME": "�����վ", "KIND": "4082", "ADDRESS": "�㶫ʡ�����дӻ���������", "TELEPHONE": null }, "geometry": { "type": "Point", "coordinates": [ 113.549091, 23.500523 ] } },
{ "type": "Feature", "properties": { "NAME": "��Ȫ��վ", "KIND": "4082", "ADDRESS": "�㶫ʡ�����дӻ��дӻ�", "TELEPHONE": null }, "geometry": { "type": "Point", "coordinates": [ 113.555895, 23.562728 ] } },
{ "type": "Feature", "properties": { "NAME": "�ֿ���վ", "KIND": "4082", "ADDRESS": "�㶫ʡ�����дӻ��дӻ�", "TELEPHONE": null }, "geometry": { "type": "Point", "coordinates": [ 113.535696, 23.566517 ] } },
{ "type": "Feature", "properties": { "NAME": "�ڵ���վ", "KIND": "4082", "ADDRESS": "�㶫ʡ�����дӻ��н�����", "TELEPHONE": null }, "geometry": { "type": "Point", "coordinates": [ 113.576652, 23.519466 ] } },
{ "type": "Feature", "properties": { "NAME": "��������վ", "KIND": "4082", "ADDRESS": "�㶫ʡ�����дӻ��дӻ�", "TELEPHONE": null }, "geometry": { "type": "Point", "coordinates": [ 113.578453, 23.539453 ] } },
{ "type": "Feature", "properties": { "NAME": "��ɽ��վ", "KIND": "4082", "ADDRESS": "�㶫ʡ�����дӻ��н�����", "TELEPHONE": null }, "geometry": { "type": "Point", "coordinates": [ 113.595179, 23.525515 ] } },
{ "type": "Feature", "properties": { "NAME": "������վ", "KIND": "4082", "ADDRESS": "�㶫ʡ�����дӻ��н�����", "TELEPHONE": null }, "geometry": { "type": "Point", "coordinates": [ 113.589865, 23.532907 ] } },
{ "type": "Feature", "properties": { "NAME": "С����վ", "KIND": "4082", "ADDRESS": "�㶫ʡ�����дӻ��н�����", "TELEPHONE": null }, "geometry": { "type": "Point", "coordinates": [ 113.596447, 23.527141 ] } },
{ "type": "Feature", "properties": { "NAME": "������վ", "KIND": "4082", "ADDRESS": "�㶫ʡ�����дӻ��н�����", "TELEPHONE": null }, "geometry": { "type": "Point", "coordinates": [ 113.607714, 23.55558 ] } },
{ "type": "Feature", "properties": { "NAME": "��ɽ��վ", "KIND": "4082", "ADDRESS": "�㶫ʡ�����дӻ��н�����", "TELEPHONE": null }, "geometry": { "type": "Point", "coordinates": [ 113.607794, 23.558264 ] } },
{ "type": "Feature", "properties": { "NAME": "������վ", "KIND": "4082", "ADDRESS": "�㶫ʡ�����дӻ��н�����", "TELEPHONE": null }, "geometry": { "type": "Point", "coordinates": [ 113.603317, 23.544611 ] } },
{ "type": "Feature", "properties": { "NAME": "��������վ", "KIND": "4082", "ADDRESS": "�㶫ʡ��������������̶��", "TELEPHONE": null }, "geometry": { "type": "Point", "coordinates": [ 113.769791, 23.472217 ] } },
{ "type": "Feature", "properties": { "NAME": "����վ", "KIND": "4082", "ADDRESS": "�㶫ʡ�����������и�����", "TELEPHONE": null }, "geometry": { "type": "Point", "coordinates": [ 113.626598, 23.324492 ] } },
{ "type": "Feature", "properties": { "NAME": "���Ƽ���վ", "KIND": "4082", "ADDRESS": "�㶫ʡ������������������", "TELEPHONE": null }, "geometry": { "type": "Point", "coordinates": [ 113.826238, 23.318428 ] } },
{ "type": "Feature", "properties": { "NAME": "��Ȫ��վ", "KIND": "4082", "ADDRESS": "�㶫ʡ�����дӻ�����Ȫ��", "TELEPHONE": null }, "geometry": { "type": "Point", "coordinates": [ 113.653084, 23.641327 ] } },
{ "type": "Feature", "properties": { "NAME": "��Ȫ���ͳ�", "KIND": "4082", "ADDRESS": "�㶫ʡ�����дӻ��������", "TELEPHONE": null }, "geometry": { "type": "Point", "coordinates": [ 113.674426, 23.680652 ] } },
{ "type": "Feature", "properties": { "NAME": "�ڵ���վ", "KIND": "4082", "ADDRESS": "�㶫ʡ�����дӻ�����Ȫ��", "TELEPHONE": null }, "geometry": { "type": "Point", "coordinates": [ 113.645698, 23.628063 ] } },
{ "type": "Feature", "properties": { "NAME": "��ڼ���վ", "KIND": "4082", "ADDRESS": "�㶫ʡ�����дӻ��������", "TELEPHONE": null }, "geometry": { "type": "Point", "coordinates": [ 113.727692, 23.718846 ] } },
{ "type": "Feature", "properties": { "NAME": "������վ", "KIND": "4082", "ADDRESS": "�㶫ʡ�����дӻ�����԰��", "TELEPHONE": null }, "geometry": { "type": "Point", "coordinates": [ 113.625876, 23.612925 ] } },
{ "type": "Feature", "properties": { "NAME": "��̨ɽ��վ", "KIND": "4082", "ADDRESS": "�㶫ʡ�����дӻ�����԰��", "TELEPHONE": null }, "geometry": { "type": "Point", "coordinates": [ 113.625197, 23.611939 ] } },
{ "type": "Feature", "properties": { "NAME": "Ӣ������վ", "KIND": "4082", "ADDRESS": "�㶫ʡ�����дӻ���������", "TELEPHONE": null }, "geometry": { "type": "Point", "coordinates": [ 113.90504, 23.773919 ] } },
{ "type": "Feature", "properties": { "NAME": "����վ", "KIND": "4082", "ADDRESS": "�㶫ʡ�����дӻ���������", "TELEPHONE": null }, "geometry": { "type": "Point", "coordinates": [ 114.001924, 23.888924 ] } },
{ "type": "Feature", "properties": { "NAME": "ʯ�Ӽ���վ", "KIND": "4082", "ADDRESS": "�㶫ʡ�����дӻ��й�����", "TELEPHONE": null }, "geometry": { "type": "Point", "coordinates": [ 113.705676, 23.584456 ] } },
{ "type": "Feature", "properties": { "NAME": "��������վ", "KIND": "4082", "ADDRESS": "�㶫ʡ��������������̶��", "TELEPHONE": null }, "geometry": { "type": "Point", "coordinates": [ 113.771013, 23.489264 ] } },
{ "type": "Feature", "properties": { "NAME": "��弼���վ", "KIND": "4082", "ADDRESS": "�㶫ʡ������������������", "TELEPHONE": null }, "geometry": { "type": "Point", "coordinates": [ 113.910996, 23.492431 ] } },
{ "type": "Feature", "properties": { "NAME": "������վ", "KIND": "4082", "ADDRESS": "�㶫ʡ��Զ����Զ�����Ĳ�", "TELEPHONE": null }, "geometry": { "type": "Point", "coordinates": [ 113.001052, 23.467412 ] } },
{ "type": "Feature", "properties": { "NAME": "��˳����վ", "KIND": "4081", "ADDRESS": "�㶫ʡ�����з�خ��̶����", "TELEPHONE": null }, "geometry": { "type": "Point", "coordinates": [ 113.386897, 22.808938 ] } },
{ "type": "Feature", "properties": { "NAME": "���ټ���վ", "KIND": "4080", "ADDRESS": "�㶫ʡ�����з�خ��̶����", "TELEPHONE": null }, "geometry": { "type": "Point", "coordinates": [ 113.387995, 22.788846 ] } },
{ "type": "Feature", "properties": { "NAME": "��ɽ����վ", "KIND": "4080", "ADDRESS": "�㶫ʡ��������ɳ�������", "TELEPHONE": null }, "geometry": { "type": "Point", "coordinates": [ 113.480098, 22.778502 ] } },
{ "type": "Feature", "properties": { "NAME": "�Ƹ󶫼���վ", "KIND": "4080", "ADDRESS": "�㶫ʡ��������ɳ���Ƹ���", "TELEPHONE": null }, "geometry": { "type": "Point", "coordinates": [ 113.518198, 22.822595 ] } },
{ "type": "Feature", "properties": { "NAME": "ʯ������վ", "KIND": "4080", "ADDRESS": "�㶫ʡ�����а�������ʯ·����", "TELEPHONE": null }, "geometry": { "type": "Point", "coordinates": [ 113.247381, 23.256331 ] } },
{ "type": "Feature", "properties": { "NAME": "��������վ", "KIND": "4081", "ADDRESS": "�㶫ʡ�����а�����������", "TELEPHONE": null }, "geometry": { "type": "Point", "coordinates": [ 113.248199, 23.253438 ] } },
{ "type": "Feature", "properties": { "NAME": "��������վ", "KIND": "4085", "ADDRESS": "�㶫ʡ�����а�����������", "TELEPHONE": null }, "geometry": { "type": "Point", "coordinates": [ 113.248199, 23.253438 ] } },
{ "type": "Feature", "properties": { "NAME": "����վ", "KIND": "4081", "ADDRESS": "�㶫ʡ�����а�����������", "TELEPHONE": null }, "geometry": { "type": "Point", "coordinates": [ 113.286573, 23.260906 ] } },
{ "type": "Feature", "properties": { "NAME": "����վ", "KIND": "4085", "ADDRESS": "�㶫ʡ�����а�����������", "TELEPHONE": null }, "geometry": { "type": "Point", "coordinates": [ 113.286573, 23.260906 ] } },
{ "type": "Feature", "properties": { "NAME": "���Ǽ���վ", "KIND": "4080", "ADDRESS": "�㶫ʡ�����а�����������", "TELEPHONE": null }, "geometry": { "type": "Point", "coordinates": [ 113.287728, 23.265482 ] } },
{ "type": "Feature", "properties": { "NAME": "������ͨ����վ", "KIND": "4083", "ADDRESS": "�㶫ʡ�����а�����������", "TELEPHONE": null }, "geometry": { "type": "Point", "coordinates": [ 113.317939, 23.263468 ] } },
{ "type": "Feature", "properties": { "NAME": "��ƽ����վ", "KIND": "4081", "ADDRESS": "�㶫ʡ�����а�����ͬ����", "TELEPHONE": null }, "geometry": { "type": "Point", "coordinates": [ 113.3144, 23.258391 ] } },
{ "type": "Feature", "properties": { "NAME": "�������վ", "KIND": "4080", "ADDRESS": "�㶫ʡ�����а�����̫����", "TELEPHONE": null }, "geometry": { "type": "Point", "coordinates": [ 113.326669, 23.298385 ] } },
{ "type": "Feature", "properties": { "NAME": "���˼���վ", "KIND": "4080", "ADDRESS": "�㶫ʡ�����а�����̫����", "TELEPHONE": null }, "geometry": { "type": "Point", "coordinates": [ 113.335395, 23.294205 ] } },
{ "type": "Feature", "properties": { "NAME": "��������վ", "KIND": "4080", "ADDRESS": "�㶫ʡ�����а�����̫����", "TELEPHONE": null }, "geometry": { "type": "Point", "coordinates": [ 113.34646, 23.271457 ] } },
{ "type": "Feature", "properties": { "NAME": "̫�ͼ���վ", "KIND": "4080", "ADDRESS": "�㶫ʡ�����а�����̫����", "TELEPHONE": null }, "geometry": { "type": "Point", "coordinates": [ 113.349298, 23.275119 ] } },
{ "type": "Feature", "properties": { "NAME": "����վ", "KIND": "4080", "ADDRESS": "�㶫ʡ�����а�����̫����", "TELEPHONE": null }, "geometry": { "type": "Point", "coordinates": [ 113.401284, 23.273723 ] } },
{ "type": "Feature", "properties": { "NAME": "魽ݼ���վ", "KIND": "4080", "ADDRESS": "�㶫ʡ�����з�خ��魺���", "TELEPHONE": null }, "geometry": { "type": "Point", "coordinates": [ 113.332746, 22.83957 ] } },
{ "type": "Feature", "properties": { "NAME": "���Ƽ���վ", "KIND": "4083", "ADDRESS": "�㶫ʡ�����з�خ����ɽ��", "TELEPHONE": null }, "geometry": { "type": "Point", "coordinates": [ 113.375441, 22.876424 ] } },
{ "type": "Feature", "properties": { "NAME": "�ӵ�ʿ����վ", "KIND": "4080", "ADDRESS": "�㶫ʡ�����з�خ������ͷ��", "TELEPHONE": null }, "geometry": { "type": "Point", "coordinates": [ 113.395487, 22.877826 ] } },
{ "type": "Feature", "properties": { "NAME": "�ӵ�ʿ����վ", "KIND": "4080", "ADDRESS": "�㶫ʡ�����з�خ������ͷ��", "TELEPHONE": null }, "geometry": { "type": "Point", "coordinates": [ 113.396098, 22.878124 ] } },
{ "type": "Feature", "properties": { "NAME": "����վ", "KIND": "4080", "ADDRESS": "�㶫ʡ�����з�خ����ӿ��", "TELEPHONE": null }, "geometry": { "type": "Point", "coordinates": [ 113.427071, 22.897004 ] } },
{ "type": "Feature", "properties": { "NAME": "��ӿ����վ", "KIND": "4080", "ADDRESS": "�㶫ʡ�����з�خ����ӿ��", "TELEPHONE": null }, "geometry": { "type": "Point", "coordinates": [ 113.488004, 22.857872 ] } },
{ "type": "Feature", "properties": { "NAME": "̿����������������վ", "KIND": "4080", "ADDRESS": "�㶫ʡ�����л�����̿����", "TELEPHONE": null }, "geometry": { "type": "Point", "coordinates": [ 113.061778, 23.316797 ] } },
{ "type": "Feature", "properties": { "NAME": "����������վ", "KIND": "4080", "ADDRESS": "�㶫ʡ�����л�����̿����", "TELEPHONE": null }, "geometry": { "type": "Point", "coordinates": [ 113.063039, 23.315562 ] } },
{ "type": "Feature", "properties": { "NAME": "�ƴ�����վ", "KIND": "4080", "ADDRESS": "�㶫ʡ�����л�����̿����", "TELEPHONE": "02083278411" }, "geometry": { "type": "Point", "coordinates": [ 113.074182, 23.32474 ] } },
{ "type": "Feature", "properties": { "NAME": "��������վ", "KIND": "4080", "ADDRESS": "�㶫ʡ�����л�����������", "TELEPHONE": null }, "geometry": { "type": "Point", "coordinates": [ 113.071487, 23.378308 ] } },
{ "type": "Feature", "properties": { "NAME": "��ɳ����վ", "KIND": "4080", "ADDRESS": "�㶫ʡ�����л�����������", "TELEPHONE": null }, "geometry": { "type": "Point", "coordinates": [ 113.070193, 23.37915 ] } },
{ "type": "Feature", "properties": { "NAME": "����վ", "KIND": "4081", "ADDRESS": "�㶫ʡ�����л�����̿����", "TELEPHONE": null }, "geometry": { "type": "Point", "coordinates": [ 113.111793, 23.356072 ] } },
{ "type": "Feature", "properties": { "NAME": "������ʯ����վ", "KIND": "4083", "ADDRESS": "�㶫ʡ�����л�����ʨ����", "TELEPHONE": null }, "geometry": { "type": "Point", "coordinates": [ 113.108983, 23.439772 ] } },
{ "type": "Feature", "properties": { "NAME": "����վ", "KIND": "4080", "ADDRESS": "�㶫ʡ�����л�����̿����", "TELEPHONE": null }, "geometry": { "type": "Point", "coordinates": [ 113.136541, 23.330818 ] } },
{ "type": "Feature", "properties": { "NAME": "�㺣����վ", "KIND": "4080", "ADDRESS": "�㶫ʡ�����л�����̿����", "TELEPHONE": null }, "geometry": { "type": "Point", "coordinates": [ 113.12185, 23.373172 ] } },
{ "type": "Feature", "properties": { "NAME": "��������վ", "KIND": "4080", "ADDRESS": "�㶫ʡ�����а�����ʯ����", "TELEPHONE": null }, "geometry": { "type": "Point", "coordinates": [ 113.219445, 23.173304 ] } },
{ "type": "Feature", "properties": { "NAME": "���Ƽ��ź�������վ", "KIND": "4080", "ADDRESS": "�㶫ʡ�����а�����ͬ�½�", "TELEPHONE": null }, "geometry": { "type": "Point", "coordinates": [ 113.23159, 23.177418 ] } },
{ "type": "Feature", "properties": { "NAME": "�����ϰ�����վ", "KIND": "4080", "ADDRESS": "�㶫ʡ��������������Դ��", "TELEPHONE": null }, "geometry": { "type": "Point", "coordinates": [ 113.227058, 23.138118 ] } },
{ "type": "Feature", "properties": { "NAME": "���ʯ�����ͼ���վ", "KIND": "4080", "ADDRESS": "�㶫ʡ�����а�����������", "TELEPHONE": null }, "geometry": { "type": "Point", "coordinates": [ 113.240209, 23.262472 ] } },
{ "type": "Feature", "properties": { "NAME": "����վ", "KIND": "4080", "ADDRESS": "�㶫ʡ�����а��������޽�", "TELEPHONE": null }, "geometry": { "type": "Point", "coordinates": [ 113.217583, 23.167607 ] } },
{ "type": "Feature", "properties": { "NAME": "�޳�Χ����վ", "KIND": "4080", "ADDRESS": "�㶫ʡ�����а���������·������", "TELEPHONE": null }, "geometry": { "type": "Point", "coordinates": [ 113.217731, 23.158388 ] } },
{ "type": "Feature", "properties": { "NAME": "ͬ���Ӫ����վ", "KIND": "4081", "ADDRESS": "�㶫ʡ�����а�����ͬ�½�", "TELEPHONE": null }, "geometry": { "type": "Point", "coordinates": [ 113.229363, 23.163665 ] } },
{ "type": "Feature", "properties": { "NAME": "��������վ", "KIND": "4080", "ADDRESS": "�㶫ʡ�������������𻨽�", "TELEPHONE": null }, "geometry": { "type": "Point", "coordinates": [ 113.239165, 23.132462 ] } },
{ "type": "Feature", "properties": { "NAME": "��������վ", "KIND": "4080", "ADDRESS": "�㶫ʡ�����а�����ʯ����", "TELEPHONE": null }, "geometry": { "type": "Point", "coordinates": [ 113.225102, 23.213179 ] } },
{ "type": "Feature", "properties": { "NAME": "��������վ", "KIND": "4080", "ADDRESS": "�㶫ʡ�����а�����ʯ����", "TELEPHONE": null }, "geometry": { "type": "Point", "coordinates": [ 113.249458, 23.238047 ] } },
{ "type": "Feature", "properties": { "NAME": "���Ǽ���վ", "KIND": "4080", "ADDRESS": "�㶫ʡ�����а�����������", "TELEPHONE": null }, "geometry": { "type": "Point", "coordinates": [ 113.257901, 23.22388 ] } },
{ "type": "Feature", "properties": { "NAME": "��������վ", "KIND": "4080", "ADDRESS": "�㶫ʡ�����а������㻨��·������", "TELEPHONE": null }, "geometry": { "type": "Point", "coordinates": [ 113.254082, 23.188882 ] } },
{ "type": "Feature", "properties": { "NAME": "����վ", "KIND": "4080", "ADDRESS": "�㶫ʡ������Խ������ͷ���֣�", "TELEPHONE": null }, "geometry": { "type": "Point", "coordinates": [ 113.249134, 23.157728 ] } },
{ "type": "Feature", "properties": { "NAME": "�������վ", "KIND": "4080", "ADDRESS": "�㶫ʡ�����а�������Ԫ�����������", "TELEPHONE": null }, "geometry": { "type": "Point", "coordinates": [ 113.249855, 23.164513 ] } },
{ "type": "Feature", "properties": { "NAME": "��������վ", "KIND": "4081", "ADDRESS": "�㶫ʡ�����а��������ƴ����ϣ�����", "TELEPHONE": null }, "geometry": { "type": "Point", "coordinates": [ 113.267311, 23.165909 ] } },
{ "type": "Feature", "properties": { "NAME": "�Ƿ�����վ", "KIND": "4080", "ADDRESS": "�㶫ʡ������Խ�����Ƿ���", "TELEPHONE": null }, "geometry": { "type": "Point", "coordinates": [ 113.26843, 23.150209 ] } },
{ "type": "Feature", "properties": { "NAME": "���Ǽ���վ", "KIND": "4080", "ADDRESS": "�㶫ʡ������Խ�����ƻ��ڽ�", "TELEPHONE": null }, "geometry": { "type": "Point", "coordinates": [ 113.298319, 23.147976 ] } },
{ "type": "Feature", "properties": { "NAME": "��ԣ����վ", "KIND": "4080", "ADDRESS": "�㶫ʡ������Խ����÷������", "TELEPHONE": null }, "geometry": { "type": "Point", "coordinates": [ 113.30956, 23.133566 ] } },
{ "type": "Feature", "properties": { "NAME": "��������վ", "KIND": "4080", "ADDRESS": "�㶫ʡ������Խ�����Ƿ���", "TELEPHONE": null }, "geometry": { "type": "Point", "coordinates": [ 113.294965, 23.156675 ] } },
{ "type": "Feature", "properties": { "NAME": "���ϼ���վ", "KIND": "4080", "ADDRESS": "�㶫ʡ�������������ֺͽ�", "TELEPHONE": null }, "geometry": { "type": "Point", "coordinates": [ 113.31446, 23.148113 ] } },
{ "type": "Feature", "properties": { "NAME": "���ݼ���վ", "KIND": "4080", "ADDRESS": "�㶫ʡ�����з�خ���Ӵ���", "TELEPHONE": null }, "geometry": { "type": "Point", "coordinates": [ 113.305074, 22.991605 ] } },
{ "type": "Feature", "properties": { "NAME": "��˫������վ", "KIND": "4080", "ADDRESS": "�㶫ʡ�����з�خ�����Ž�", "TELEPHONE": null }, "geometry": { "type": "Point", "coordinates": [ 113.305712, 22.939947 ] } },
{ "type": "Feature", "properties": { "NAME": "ʯϪ����վ", "KIND": "4080", "ADDRESS": "�㶫ʡ�����к������½���", "TELEPHONE": null }, "geometry": { "type": "Point", "coordinates": [ 113.283086, 23.069314 ] } },
{ "type": "Feature", "properties": { "NAME": "����վ", "KIND": "4080", "ADDRESS": "�㶫ʡ�����к��������ݴ����ϣ�������", "TELEPHONE": null }, "geometry": { "type": "Point", "coordinates": [ 113.309387, 23.08279 ] } },
{ "type": "Feature", "properties": { "NAME": "����վ", "KIND": "4081", "ADDRESS": "�㶫ʡ�����з�خ����ʯ��", "TELEPHONE": null }, "geometry": { "type": "Point", "coordinates": [ 113.328326, 23.021393 ] } },
{ "type": "Feature", "properties": { "NAME": "�˺ż���վ", "KIND": "4080", "ADDRESS": "�㶫ʡ�����з�خ���Ӵ���", "TELEPHONE": "02083278411" }, "geometry": { "type": "Point", "coordinates": [ 113.316701, 22.972054 ] } },
{ "type": "Feature", "properties": { "NAME": "����վ", "KIND": "4080", "ADDRESS": "�㶫ʡ�����з�خ���Ӵ���", "TELEPHONE": null }, "geometry": { "type": "Point", "coordinates": [ 113.320764, 22.973297 ] } },
{ "type": "Feature", "properties": { "NAME": "����վ", "KIND": "4080", "ADDRESS": "�㶫ʡ�����з�خ����ʯ��", "TELEPHONE": null }, "geometry": { "type": "Point", "coordinates": [ 113.336663, 23.008189 ] } },
{ "type": "Feature", "properties": { "NAME": "����վ", "KIND": "4080", "ADDRESS": "�㶫ʡ�����з�خ���ϴ���", "TELEPHONE": null }, "geometry": { "type": "Point", "coordinates": [ 113.343001, 23.014821 ] } },
{ "type": "Feature", "properties": { "NAME": "��������վ", "KIND": "4080", "ADDRESS": "�㶫ʡ�����з�خ���ϴ���", "TELEPHONE": null }, "geometry": { "type": "Point", "coordinates": [ 113.341682, 23.002828 ] } },
{ "type": "Feature", "properties": { "NAME": "����վ", "KIND": "4080", "ADDRESS": "�㶫ʡ�����з�خ���ϴ���", "TELEPHONE": null }, "geometry": { "type": "Point", "coordinates": [ 113.344771, 23.014371 ] } },
{ "type": "Feature", "properties": { "NAME": "��������վ", "KIND": "4080", "ADDRESS": "�㶫ʡ��������������Ϫ���������", "TELEPHONE": null }, "geometry": { "type": "Point", "coordinates": [ 113.192427, 23.070447 ] } },
{ "type": "Feature", "properties": { "NAME": "��������վ", "KIND": "4080", "ADDRESS": "�㶫ʡ���������������]��", "TELEPHONE": null }, "geometry": { "type": "Point", "coordinates": [ 113.228245, 23.068681 ] } },
{ "type": "Feature", "properties": { "NAME": "�׶�����վ", "KIND": "4080", "ADDRESS": "�㶫ʡ�������������׺׶���", "TELEPHONE": null }, "geometry": { "type": "Point", "coordinates": [ 113.240048, 23.078642 ] } },
{ "type": "Feature", "properties": { "NAME": "��ɳ����վ", "KIND": "4080", "ADDRESS": "�㶫ʡ�����к�����������", "TELEPHONE": null }, "geometry": { "type": "Point", "coordinates": [ 113.253571, 23.093103 ] } },
{ "type": "Feature", "properties": { "NAME": "��������վ", "KIND": "4080", "ADDRESS": "�㶫ʡ�����з�خ��ɳ����", "TELEPHONE": null }, "geometry": { "type": "Point", "coordinates": [ 113.296749, 22.902284 ] } },
{ "type": "Feature", "properties": { "NAME": "����վ", "KIND": "4080", "ADDRESS": "�㶫ʡ�����а�������ɽ��", "TELEPHONE": null }, "geometry": { "type": "Point", "coordinates": [ 113.153403, 23.334032 ] } },
{ "type": "Feature", "properties": { "NAME": "�Ϸ�����վ", "KIND": "4080", "ADDRESS": "�㶫ʡ�����л������»���", "TELEPHONE": null }, "geometry": { "type": "Point", "coordinates": [ 113.152465, 23.380782 ] } },
{ "type": "Feature", "properties": { "NAME": "����ﱱ����վ", "KIND": "4080", "ADDRESS": "�㶫ʡ�����л�����ʨ����", "TELEPHONE": null }, "geometry": { "type": "Point", "coordinates": [ 113.159331, 23.452333 ] } },
{ "type": "Feature", "properties": { "NAME": "������ϼ���վ", "KIND": "4080", "ADDRESS": "�㶫ʡ�����л�����ʨ����", "TELEPHONE": null }, "geometry": { "type": "Point", "coordinates": [ 113.157727, 23.451936 ] } },
{ "type": "Feature", "properties": { "NAME": "���¼���վ", "KIND": "4080", "ADDRESS": "�㶫ʡ�����л������»���", "TELEPHONE": null }, "geometry": { "type": "Point", "coordinates": [ 113.205847, 23.385663 ] } },
{ "type": "Feature", "properties": { "NAME": "��������վ", "KIND": "4080", "ADDRESS": "�㶫ʡ�����л�����������", "TELEPHONE": null }, "geometry": { "type": "Point", "coordinates": [ 113.217222, 23.365229 ] } },
{ "type": "Feature", "properties": { "NAME": "�Ǳ�����վ", "KIND": "4080", "ADDRESS": "�㶫ʡ�����л�����ʨ����", "TELEPHONE": null }, "geometry": { "type": "Point", "coordinates": [ 113.204942, 23.414986 ] } },
{ "type": "Feature", "properties": { "NAME": "����վ", "KIND": "4080", "ADDRESS": "�㶫ʡ�����л�����ʨ����", "TELEPHONE": null }, "geometry": { "type": "Point", "coordinates": [ 113.186701, 23.419141 ] } },
{ "type": "Feature", "properties": { "NAME": "�ӵ�ʿ����վ", "KIND": "4080", "ADDRESS": "�㶫ʡ�����л������»���", "TELEPHONE": null }, "geometry": { "type": "Point", "coordinates": [ 113.202659, 23.410789 ] } },
{ "type": "Feature", "properties": { "NAME": "��������վ", "KIND": "4080", "ADDRESS": "�㶫ʡ�����а�������ɽ��", "TELEPHONE": null }, "geometry": { "type": "Point", "coordinates": [ 113.192658, 23.33533 ] } },
{ "type": "Feature", "properties": { "NAME": "˳��˫�ڼ���վ", "KIND": "4080", "ADDRESS": "�㶫ʡ�����а�����������", "TELEPHONE": null }, "geometry": { "type": "Point", "coordinates": [ 113.22276, 23.332315 ] } },
{ "type": "Feature", "properties": { "NAME": "��������վ", "KIND": "4080", "ADDRESS": "�㶫ʡ�����а�����������", "TELEPHONE": null }, "geometry": { "type": "Point", "coordinates": [ 113.217193, 23.279437 ] } },
{ "type": "Feature", "properties": { "NAME": "��������վ", "KIND": "4080", "ADDRESS": "�㶫ʡ�����а�����������", "TELEPHONE": null }, "geometry": { "type": "Point", "coordinates": [ 113.235651, 23.298727 ] } },
{ "type": "Feature", "properties": { "NAME": "���ƺ�������վ", "KIND": "4083", "ADDRESS": "�㶫ʡ�����л�����ܽ����", "TELEPHONE": null }, "geometry": { "type": "Point", "coordinates": [ 113.211344, 23.475117 ] } },
{ "type": "Feature", "properties": { "NAME": "����վ", "KIND": "4081", "ADDRESS": "�㶫ʡ�����л�����ʨ����", "TELEPHONE": null }, "geometry": { "type": "Point", "coordinates": [ 113.211051, 23.434803 ] } },
{ "type": "Feature", "properties": { "NAME": "������ׯ����վ", "KIND": "4083", "ADDRESS": "�㶫ʡ�����л�����ܽ����", "TELEPHONE": null }, "geometry": { "type": "Point", "coordinates": [ 113.229672, 23.485763 ] } },
{ "type": "Feature", "properties": { "NAME": "����վ", "KIND": "4081", "ADDRESS": "�㶫ʡ�����л������»���", "TELEPHONE": null }, "geometry": { "type": "Point", "coordinates": [ 113.224587, 23.426425 ] } },
{ "type": "Feature", "properties": { "NAME": "����վ", "KIND": "4085", "ADDRESS": "�㶫ʡ�����л������»���", "TELEPHONE": null }, "geometry": { "type": "Point", "coordinates": [ 113.224587, 23.426425 ] } },
{ "type": "Feature", "properties": { "NAME": "�������վ", "KIND": "4080", "ADDRESS": "�㶫ʡ�����л������»���", "TELEPHONE": null }, "geometry": { "type": "Point", "coordinates": [ 113.230423, 23.391752 ] } },
{ "type": "Feature", "properties": { "NAME": "����վ", "KIND": "4080", "ADDRESS": "�㶫ʡ�����а�����ʯ����", "TELEPHONE": null }, "geometry": { "type": "Point", "coordinates": [ 113.264486, 23.205955 ] } },
{ "type": "Feature", "properties": { "NAME": "����վ", "KIND": "4080", "ADDRESS": "�㶫ʡ�����а������ɻ���", "TELEPHONE": null }, "geometry": { "type": "Point", "coordinates": [ 113.2596, 23.18597 ] } },
{ "type": "Feature", "properties": { "NAME": "���Ƽ���վ", "KIND": "4080", "ADDRESS": "�㶫ʡ�����а�������̩��", "TELEPHONE": null }, "geometry": { "type": "Point", "coordinates": [ 113.268846, 23.173554 ] } },
{ "type": "Feature", "properties": { "NAME": "���˼���վ", "KIND": "4081", "ADDRESS": "�㶫ʡ�����а�����������", "TELEPHONE": null }, "geometry": { "type": "Point", "coordinates": [ 113.268397, 23.231648 ] } },
{ "type": "Feature", "properties": { "NAME": "����վ", "KIND": "4080", "ADDRESS": "�㶫ʡ�����а�����������", "TELEPHONE": null }, "geometry": { "type": "Point", "coordinates": [ 113.278247, 23.205415 ] } },
{ "type": "Feature", "properties": { "NAME": "����վ", "KIND": "4081", "ADDRESS": "�㶫ʡ�����а�������ʯ��·������", "TELEPHONE": null }, "geometry": { "type": "Point", "coordinates": [ 113.278292, 23.204796 ] } },
{ "type": "Feature", "properties": { "NAME": "����վ", "KIND": "4081", "ADDRESS": "�㶫ʡ�����а�����ͬ����", "TELEPHONE": null }, "geometry": { "type": "Point", "coordinates": [ 113.294155, 23.225081 ] } },
{ "type": "Feature", "properties": { "NAME": "���˼���վ", "KIND": "4080", "ADDRESS": "�㶫ʡ�����а�����ͬ����", "TELEPHONE": null }, "geometry": { "type": "Point", "coordinates": [ 113.299071, 23.222881 ] } },
{ "type": "Feature", "properties": { "NAME": "��ɽ����վ", "KIND": "4081", "ADDRESS": "�㶫ʡ�����а�����ͬ����", "TELEPHONE": null }, "geometry": { "type": "Point", "coordinates": [ 113.322419, 23.192727 ] } },
{ "type": "Feature", "properties": { "NAME": "��ƽ����վ", "KIND": "4081", "ADDRESS": "�㶫ʡ������������ɳ̫��·������", "TELEPHONE": null }, "geometry": { "type": "Point", "coordinates": [ 113.320635, 23.171083 ] } },
{ "type": "Feature", "properties": { "NAME": "������Ϫ����վ", "KIND": "4080", "ADDRESS": "�㶫ʡ������������ɳ̫��·������", "TELEPHONE": null }, "geometry": { "type": "Point", "coordinates": [ 113.324501, 23.174644 ] } },
{ "type": "Feature", "properties": { "NAME": "Ԫ�ڼ���վ", "KIND": "4080", "ADDRESS": "�㶫ʡ��������������ɽ��", "TELEPHONE": null }, "geometry": { "type": "Point", "coordinates": [ 113.336112, 23.172265 ] } },
{ "type": "Feature", "properties": { "NAME": "���ݶر�����վ", "KIND": "4081", "ADDRESS": "�㶫ʡ������������ɳ����", "TELEPHONE": null }, "geometry": { "type": "Point", "coordinates": [ 113.34108, 23.172175 ] } },
{ "type": "Feature", "properties": { "NAME": "���˼���վ", "KIND": "4080", "ADDRESS": "�㶫ʡ������������ɳ����", "TELEPHONE": null }, "geometry": { "type": "Point", "coordinates": [ 113.354865, 23.186964 ] } },
{ "type": "Feature", "properties": { "NAME": "����վ", "KIND": "4080", "ADDRESS": "�㶫ʡ������������ɳ����", "TELEPHONE": null }, "geometry": { "type": "Point", "coordinates": [ 113.352332, 23.185949 ] } },
{ "type": "Feature", "properties": { "NAME": "����վ", "KIND": "4080", "ADDRESS": "�㶫ʡ��������������ɽ��", "TELEPHONE": null }, "geometry": { "type": "Point", "coordinates": [ 113.379037, 23.154062 ] } },
{ "type": "Feature", "properties": { "NAME": "����վ", "KIND": "4080", "ADDRESS": "�㶫ʡ��������������ɽ��", "TELEPHONE": null }, "geometry": { "type": "Point", "coordinates": [ 113.379118, 23.153119 ] } },
{ "type": "Feature", "properties": { "NAME": "��̶����վ", "KIND": "4081", "ADDRESS": "�㶫ʡ�����дӻ�����̶��", "TELEPHONE": null }, "geometry": { "type": "Point", "coordinates": [ 113.406749, 23.667929 ] } },
{ "type": "Feature", "properties": { "NAME": "ˮ�ϼ���վ", "KIND": "4080", "ADDRESS": "�㶫ʡ�����дӻ���������", "TELEPHONE": null }, "geometry": { "type": "Point", "coordinates": [ 113.495919, 23.470732 ] } },
{ "type": "Feature", "properties": { "NAME": "����վ", "KIND": "4081", "ADDRESS": "�㶫ʡ������������ɳ����", "TELEPHONE": null }, "geometry": { "type": "Point", "coordinates": [ 113.383391, 23.195937 ] } },
{ "type": "Feature", "properties": { "NAME": "����վ", "KIND": "4081", "ADDRESS": "�㶫ʡ������������������", "TELEPHONE": null }, "geometry": { "type": "Point", "coordinates": [ 113.414656, 23.174072 ] } },
{ "type": "Feature", "properties": { "NAME": "����վ", "KIND": "4083", "ADDRESS": "�㶫ʡ�������ܸ����ܸ���", "TELEPHONE": null }, "geometry": { "type": "Point", "coordinates": [ 113.418244, 23.194327 ] } },
{ "type": "Feature", "properties": { "NAME": "����վ", "KIND": "4081", "ADDRESS": "�㶫ʡ�������ܸ����ܸ���", "TELEPHONE": null }, "geometry": { "type": "Point", "coordinates": [ 113.437313, 23.191431 ] } },
{ "type": "Feature", "properties": { "NAME": "����վ", "KIND": "4081", "ADDRESS": "�㶫ʡ�������ܸ����ܸ���", "TELEPHONE": null }, "geometry": { "type": "Point", "coordinates": [ 113.444136, 23.192555 ] } },
{ "type": "Feature", "properties": { "NAME": "�����������վ", "KIND": "4083", "ADDRESS": "�㶫ʡ������������������", "TELEPHONE": null }, "geometry": { "type": "Point", "coordinates": [ 113.408957, 23.166903 ] } },
{ "type": "Feature", "properties": { "NAME": "��ͨ����վ", "KIND": "4081", "ADDRESS": "�㶫ʡ�����л�������ɳ��", "TELEPHONE": null }, "geometry": { "type": "Point", "coordinates": [ 113.450723, 23.134811 ] } },
{ "type": "Feature", "properties": { "NAME": "��������վ", "KIND": "4080", "ADDRESS": "�㶫ʡ������Խ���������Ͻ�", "TELEPHONE": null }, "geometry": { "type": "Point", "coordinates": [ 113.273983, 23.118261 ] } },
{ "type": "Feature", "properties": { "NAME": "����վ", "KIND": "4081", "ADDRESS": "�㶫ʡ�����к������¸۽�", "TELEPHONE": null }, "geometry": { "type": "Point", "coordinates": [ 113.287663, 23.094999 ] } },
{ "type": "Feature", "properties": { "NAME": "����վ", "KIND": "4083", "ADDRESS": "�㶫ʡ�����к�����̩ɳ·����", "TELEPHONE": null }, "geometry": { "type": "Point", "coordinates": [ 113.280173, 23.087247 ] } },
{ "type": "Feature", "properties": { "NAME": "��������վ", "KIND": "4081", "ADDRESS": "�㶫ʡ�����к������¸۽�", "TELEPHONE": null }, "geometry": { "type": "Point", "coordinates": [ 113.294876, 23.09453 ] } },
{ "type": "Feature", "properties": { "NAME": "����վ", "KIND": "4080", "ADDRESS": "�㶫ʡ�����к������½���", "TELEPHONE": null }, "geometry": { "type": "Point", "coordinates": [ 113.310784, 23.092912 ] } },
{ "type": "Feature", "properties": { "NAME": "Ա������վ", "KIND": "4080", "ADDRESS": "�㶫ʡ���������������Ҵ����У�����", "TELEPHONE": null }, "geometry": { "type": "Point", "coordinates": [ 113.348087, 23.127342 ] } },
{ "type": "Feature", "properties": { "NAME": "���ݳ�ɳ����վ", "KIND": "4080", "ADDRESS": "�㶫ʡ�����к������½���", "TELEPHONE": null }, "geometry": { "type": "Point", "coordinates": [ 113.346407, 23.094341 ] } },
{ "type": "Feature", "properties": { "NAME": "�붫����վ", "KIND": "4080", "ADDRESS": "�㶫ʡ������������������", "TELEPHONE": null }, "geometry": { "type": "Point", "coordinates": [ 113.384442, 23.119422 ] } },
{ "type": "Feature", "properties": { "NAME": "��������վ", "KIND": "4080", "ADDRESS": "�㶫ʡ������������Ա����", "TELEPHONE": null }, "geometry": { "type": "Point", "coordinates": [ 113.365156, 23.123643 ] } },
{ "type": "Feature", "properties": { "NAME": "�齭��������վ", "KIND": "4080", "ADDRESS": "�㶫ʡ������������������", "TELEPHONE": null }, "geometry": { "type": "Point", "coordinates": [ 113.376476, 23.127695 ] } },
{ "type": "Feature", "properties": { "NAME": "�ڼμ���վ", "KIND": "4080", "ADDRESS": "�㶫ʡ������������������", "TELEPHONE": null }, "geometry": { "type": "Point", "coordinates": [ 113.409616, 23.106575 ] } },
{ "type": "Feature", "properties": { "NAME": "��������վ", "KIND": "4080", "ADDRESS": "�㶫ʡ������������������", "TELEPHONE": null }, "geometry": { "type": "Point", "coordinates": [ 113.415863, 23.104795 ] } },
{ "type": "Feature", "properties": { "NAME": "é�ڼ���վ", "KIND": "4080", "ADDRESS": "�㶫ʡ�����л�������ɳ��", "TELEPHONE": null }, "geometry": { "type": "Point", "coordinates": [ 113.432899, 23.111456 ] } },
{ "type": "Feature", "properties": { "NAME": "���ҹ�ͨ����վ", "KIND": "4080", "ADDRESS": "�㶫ʡ�����л�������ɳ��", "TELEPHONE": null }, "geometry": { "type": "Point", "coordinates": [ 113.479333, 23.091533 ] } },
{ "type": "Feature", "properties": { "NAME": "ɳ������վ", "KIND": "4080", "ADDRESS": "�㶫ʡ�����л������ϸ���", "TELEPHONE": null }, "geometry": { "type": "Point", "coordinates": [ 113.519063, 23.082487 ] } },
{ "type": "Feature", "properties": { "NAME": "��ҵ����վ", "KIND": "4080", "ADDRESS": "�㶫ʡ�����з�خ��������", "TELEPHONE": null }, "geometry": { "type": "Point", "coordinates": [ 113.404225, 23.028073 ] } },
{ "type": "Feature", "properties": { "NAME": "����վ", "KIND": "4081", "ADDRESS": "�㶫ʡ�����к������½���", "TELEPHONE": null }, "geometry": { "type": "Point", "coordinates": [ 113.35421, 23.086093 ] } },
{ "type": "Feature", "properties": { "NAME": "������վ����վ", "KIND": "4081", "ADDRESS": "�㶫ʡ�����з�خ��������", "TELEPHONE": null }, "geometry": { "type": "Point", "coordinates": [ 113.41736, 23.005946 ] } },
{ "type": "Feature", "properties": { "NAME": "������վ����վ", "KIND": "4081", "ADDRESS": "�㶫ʡ�����з�خ��������", "TELEPHONE": null }, "geometry": { "type": "Point", "coordinates": [ 113.418121, 23.005652 ] } },
{ "type": "Feature", "properties": { "NAME": "���˻�ҵ����վ", "KIND": "4081", "ADDRESS": "�㶫ʡ�����з�خ��ʯ¥��", "TELEPHONE": null }, "geometry": { "type": "Point", "coordinates": [ 113.480315, 22.954393 ] } },
{ "type": "Feature", "properties": { "NAME": "��˼���վ", "KIND": "4081", "ADDRESS": "�㶫ʡ�����з�خ�����ɽ��", "TELEPHONE": null }, "geometry": { "type": "Point", "coordinates": [ 113.493301, 22.97144 ] } },
{ "type": "Feature", "properties": { "NAME": "��خˮ������վ", "KIND": "4080", "ADDRESS": "�㶫ʡ�����з�خ�����ɽ��", "TELEPHONE": null }, "geometry": { "type": "Point", "coordinates": [ 113.484987, 22.983821 ] } },
{ "type": "Feature", "properties": { "NAME": "����վ", "KIND": "4081", "ADDRESS": "�㶫ʡ�����з�خ��ʯ¥��", "TELEPHONE": null }, "geometry": { "type": "Point", "coordinates": [ 113.509691, 22.964253 ] } },
{ "type": "Feature", "properties": { "NAME": "���ݿѷ�����վ", "KIND": "4081", "ADDRESS": "�㶫ʡ�������ܸ����ܸ���", "TELEPHONE": null }, "geometry": { "type": "Point", "coordinates": [ 113.476031, 23.210677 ] } },
{ "type": "Feature", "properties": { "NAME": "ˮ������վ", "KIND": "4081", "ADDRESS": "�㶫ʡ�������ܸ����ܸ���", "TELEPHONE": null }, "geometry": { "type": "Point", "coordinates": [ 113.470712, 23.208965 ] } },
{ "type": "Feature", "properties": { "NAME": "����վ", "KIND": "4080", "ADDRESS": "�㶫ʡ�����л������»���", "TELEPHONE": null }, "geometry": { "type": "Point", "coordinates": [ 113.237178, 23.397782 ] } },
{ "type": "Feature", "properties": { "NAME": "����վ", "KIND": "4081", "ADDRESS": "�㶫ʡ�����л������»���", "TELEPHONE": null }, "geometry": { "type": "Point", "coordinates": [ 113.254769, 23.390463 ] } },
{ "type": "Feature", "properties": { "NAME": "����վ", "KIND": "4081", "ADDRESS": "�㶫ʡ�����л�������ɽ��", "TELEPHONE": null }, "geometry": { "type": "Point", "coordinates": [ 113.257606, 23.428414 ] } },
{ "type": "Feature", "properties": { "NAME": "����վ", "KIND": "4080", "ADDRESS": "�㶫ʡ�����л�������ɽ��", "TELEPHONE": null }, "geometry": { "type": "Point", "coordinates": [ 113.289771, 23.438017 ] } },
{ "type": "Feature", "properties": { "NAME": "��������վ", "KIND": "4080", "ADDRESS": "�㶫ʡ�����л�������ɽ��", "TELEPHONE": null }, "geometry": { "type": "Point", "coordinates": [ 113.287121, 23.494369 ] } },
{ "type": "Feature", "properties": { "NAME": "����վ", "KIND": "4080", "ADDRESS": "�㶫ʡ�����а��������������֣�", "TELEPHONE": null }, "geometry": { "type": "Point", "coordinates": [ 113.35182, 23.368841 ] } },
{ "type": "Feature", "properties": { "NAME": "�����������վ", "KIND": "4080", "ADDRESS": "�㶫ʡ�����а�����������", "TELEPHONE": null }, "geometry": { "type": "Point", "coordinates": [ 113.364977, 23.356349 ] } },
{ "type": "Feature", "properties": { "NAME": "������˳������վ", "KIND": "4080", "ADDRESS": "�㶫ʡ�����а���������̶��", "TELEPHONE": null }, "geometry": { "type": "Point", "coordinates": [ 113.390779, 23.375046 ] } },
{ "type": "Feature", "properties": { "NAME": "������˳������վ", "KIND": "4080", "ADDRESS": "�㶫ʡ�����а���������̶��", "TELEPHONE": null }, "geometry": { "type": "Point", "coordinates": [ 113.390863, 23.373544 ] } },
{ "type": "Feature", "properties": { "NAME": "����վ", "KIND": "4080", "ADDRESS": "�㶫ʡ�����л�����������", "TELEPHONE": null }, "geometry": { "type": "Point", "coordinates": [ 113.373391, 23.423136 ] } },
{ "type": "Feature", "properties": { "NAME": "����������վ", "KIND": "4080", "ADDRESS": "�㶫ʡ�����дӻ���̫ƽ��", "TELEPHONE": null }, "geometry": { "type": "Point", "coordinates": [ 113.480104, 23.430297 ] } },
{ "type": "Feature", "properties": { "NAME": "�¸�������վ", "KIND": "4080", "ADDRESS": "�㶫ʡ�������ܸ����ܸ���", "TELEPHONE": null }, "geometry": { "type": "Point", "coordinates": [ 113.554292, 23.197428 ] } },
{ "type": "Feature", "properties": { "NAME": "����̶����վ", "KIND": "4080", "ADDRESS": "�㶫ʡ�����а���������̶��", "TELEPHONE": null }, "geometry": { "type": "Point", "coordinates": [ 113.403808, 23.383409 ] } },
{ "type": "Feature", "properties": { "NAME": "�Ƹ�������վ", "KIND": "4080", "ADDRESS": "�㶫ʡ��������ɳ���Ƹ���", "TELEPHONE": null }, "geometry": { "type": "Point", "coordinates": [ 113.51931, 22.819216 ] } },
{ "type": "Feature", "properties": { "NAME": "���ż���վ", "KIND": "4080", "ADDRESS": "�㶫ʡ��������ɳ���Ƹ���", "TELEPHONE": null }, "geometry": { "type": "Point", "coordinates": [ 113.52485, 22.805897 ] } },
{ "type": "Feature", "properties": { "NAME": "����վ", "KIND": "4081", "ADDRESS": "�㶫ʡ��������ɳ����ɳ��", "TELEPHONE": null }, "geometry": { "type": "Point", "coordinates": [ 113.558442, 22.818949 ] } },
{ "type": "Feature", "properties": { "NAME": "�۳Ǽ���վ", "KIND": "4080", "ADDRESS": "�㶫ʡ�������ܸ����ܸ���", "TELEPHONE": null }, "geometry": { "type": "Point", "coordinates": [ 113.519953, 23.159512 ] } },
{ "type": "Feature", "properties": { "NAME": "���ϼ���վ", "KIND": "4081", "ADDRESS": "�㶫ʡ�������ܸ����ܸ���", "TELEPHONE": null }, "geometry": { "type": "Point", "coordinates": [ 113.526663, 23.140761 ] } },
{ "type": "Feature", "properties": { "NAME": "����վ", "KIND": "4081", "ADDRESS": "�㶫ʡ�����л������ϸ���", "TELEPHONE": null }, "geometry": { "type": "Point", "coordinates": [ 113.542811, 23.107664 ] } },
{ "type": "Feature", "properties": { "NAME": "����վ", "KIND": "4081", "ADDRESS": "�㶫ʡ������������������", "TELEPHONE": null }, "geometry": { "type": "Point", "coordinates": [ 113.556893, 23.121316 ] } },
{ "type": "Feature", "properties": { "NAME": "����վ", "KIND": "4081", "ADDRESS": "�㶫ʡ������������������", "TELEPHONE": null }, "geometry": { "type": "Point", "coordinates": [ 113.575778, 23.12455 ] } },
{ "type": "Feature", "properties": { "NAME": "����վ", "KIND": "4080", "ADDRESS": "�㶫ʡ������������������", "TELEPHONE": null }, "geometry": { "type": "Point", "coordinates": [ 113.58132, 23.124734 ] } },
{ "type": "Feature", "properties": { "NAME": "����վ", "KIND": "4080", "ADDRESS": "�㶫ʡ�����л������ϸ���", "TELEPHONE": null }, "geometry": { "type": "Point", "coordinates": [ 113.546224, 23.113132 ] } },
{ "type": "Feature", "properties": { "NAME": "�Ͳ�����վ", "KIND": "4080", "ADDRESS": "�㶫ʡ�����������������", "TELEPHONE": null }, "geometry": { "type": "Point", "coordinates": [ 113.591985, 23.159355 ] } },
{ "type": "Feature", "properties": { "NAME": "���˼���վ", "KIND": "4080", "ADDRESS": "�㶫ʡ�������ܸ���������", "TELEPHONE": null }, "geometry": { "type": "Point", "coordinates": [ 113.57966, 23.284125 ] } },
{ "type": "Feature", "properties": { "NAME": "�κͼ���վ", "KIND": "4080", "ADDRESS": "�㶫ʡ�����������������", "TELEPHONE": null }, "geometry": { "type": "Point", "coordinates": [ 113.587166, 23.195072 ] } },
{ "type": "Feature", "properties": { "NAME": "����վ", "KIND": "4081", "ADDRESS": "�㶫ʡ������������������", "TELEPHONE": null }, "geometry": { "type": "Point", "coordinates": [ 113.627498, 23.282578 ] } },
{ "type": "Feature", "properties": { "NAME": "�������վ", "KIND": "4081", "ADDRESS": "�㶫ʡ������������������", "TELEPHONE": null }, "geometry": { "type": "Point", "coordinates": [ 113.655946, 23.21644 ] } },
{ "type": "Feature", "properties": { "NAME": "�δ�����վ", "KIND": "4080", "ADDRESS": "�㶫ʡ������������������", "TELEPHONE": null }, "geometry": { "type": "Point", "coordinates": [ 113.629653, 23.140655 ] } },
{ "type": "Feature", "properties": { "NAME": "�Ϸ�����վ", "KIND": "4080", "ADDRESS": "�㶫ʡ�����������������", "TELEPHONE": null }, "geometry": { "type": "Point", "coordinates": [ 113.585707, 23.182145 ] } },
{ "type": "Feature", "properties": { "NAME": "��־����վ", "KIND": "4080", "ADDRESS": "�㶫ʡ�������������ɴ���", "TELEPHONE": null }, "geometry": { "type": "Point", "coordinates": [ 113.70301, 23.187161 ] } },
{ "type": "Feature", "properties": { "NAME": "�������վ", "KIND": "4080", "ADDRESS": "�㶫ʡ�������������ɴ���", "TELEPHONE": "02083278411" }, "geometry": { "type": "Point", "coordinates": [ 113.712257, 23.17756 ] } },
{ "type": "Feature", "properties": { "NAME": "Э�ͼ���վ", "KIND": "4080", "ADDRESS": "�㶫ʡ������������������", "TELEPHONE": null }, "geometry": { "type": "Point", "coordinates": [ 113.602683, 23.288648 ] } },
{ "type": "Feature", "properties": { "NAME": "����վ", "KIND": "4081", "ADDRESS": "�㶫ʡ�����������и�����", "TELEPHONE": null }, "geometry": { "type": "Point", "coordinates": [ 113.628963, 23.350681 ] } },
{ "type": "Feature", "properties": { "NAME": "������˳������վ", "KIND": "4080", "ADDRESS": "�㶫ʡ������������������", "TELEPHONE": null }, "geometry": { "type": "Point", "coordinates": [ 113.686179, 23.275089 ] } },
{ "type": "Feature", "properties": { "NAME": "����վ", "KIND": "4081", "ADDRESS": "�㶫ʡ�������������ɴ���", "TELEPHONE": null }, "geometry": { "type": "Point", "coordinates": [ 113.692635, 23.162127 ] } },
{ "type": "Feature", "properties": { "NAME": "����վ", "KIND": "4081", "ADDRESS": "�㶫ʡ�������������ɴ���", "TELEPHONE": null }, "geometry": { "type": "Point", "coordinates": [ 113.693154, 23.161407 ] } },
{ "type": "Feature", "properties": { "NAME": "���N����վ", "KIND": "4081", "ADDRESS": "�㶫ʡ������������ʯ̲��", "TELEPHONE": null }, "geometry": { "type": "Point", "coordinates": [ 113.741031, 23.207474 ] } },
{ "type": "Feature", "properties": { "NAME": "����վ", "KIND": "4083", "ADDRESS": "�㶫ʡ������������������", "TELEPHONE": null }, "geometry": { "type": "Point", "coordinates": [ 113.736652, 23.278692 ] } },
{ "type": "Feature", "properties": { "NAME": "����վ", "KIND": "4080", "ADDRESS": "�㶫ʡ������������������", "TELEPHONE": null }, "geometry": { "type": "Point", "coordinates": [ 113.75973, 23.283295 ] } },
{ "type": "Feature", "properties": { "NAME": "����վ", "KIND": "4080", "ADDRESS": "�㶫ʡ������������ʯ̲��", "TELEPHONE": null }, "geometry": { "type": "Point", "coordinates": [ 113.783036, 23.180693 ] } },
{ "type": "Feature", "properties": { "NAME": "ʯ̲����վ", "KIND": "4080", "ADDRESS": "�㶫ʡ������������ʯ̲��", "TELEPHONE": null }, "geometry": { "type": "Point", "coordinates": [ 113.783597, 23.183158 ] } },
{ "type": "Feature", "properties": { "NAME": "����վ", "KIND": "4080", "ADDRESS": "�㶫ʡ������������������", "TELEPHONE": null }, "geometry": { "type": "Point", "coordinates": [ 113.773762, 23.284062 ] } },
{ "type": "Feature", "properties": { "NAME": "����վ", "KIND": "4081", "ADDRESS": "�㶫ʡ������������������", "TELEPHONE": null }, "geometry": { "type": "Point", "coordinates": [ 113.806325, 23.275704 ] } },
{ "type": "Feature", "properties": { "NAME": "����վ", "KIND": "4080", "ADDRESS": "�㶫ʡ������������������", "TELEPHONE": null }, "geometry": { "type": "Point", "coordinates": [ 113.842799, 23.25549 ] } },
{ "type": "Feature", "properties": { "NAME": "���ƺ��˼���վ", "KIND": "4083", "ADDRESS": "�㶫ʡ������������������", "TELEPHONE": null }, "geometry": { "type": "Point", "coordinates": [ 113.828135, 23.364219 ] } },
{ "type": "Feature", "properties": { "NAME": "��������վ", "KIND": "4080", "ADDRESS": "�㶫ʡ������������������", "TELEPHONE": null }, "geometry": { "type": "Point", "coordinates": [ 113.846889, 23.18281 ] } },
{ "type": "Feature", "properties": { "NAME": "����������վ", "KIND": "4081", "ADDRESS": "�㶫ʡ�����а�����������", "TELEPHONE": null }, "geometry": { "type": "Point", "coordinates": [ 113.3529, 23.324596 ] } },
{ "type": "Feature", "properties": { "NAME": "����վ", "KIND": "4081", "ADDRESS": "�㶫ʡ�����а����������", "TELEPHONE": null }, "geometry": { "type": "Point", "coordinates": [ 113.443578, 23.331409 ] } },
{ "type": "Feature", "properties": { "NAME": "����վ", "KIND": "4081", "ADDRESS": "�㶫ʡ�����а����������", "TELEPHONE": null }, "geometry": { "type": "Point", "coordinates": [ 113.47254, 23.318431 ] } },
{ "type": "Feature", "properties": { "NAME": "Э�ͼ���վ", "KIND": "4080", "ADDRESS": "�㶫ʡ�����дӻ���������", "TELEPHONE": null }, "geometry": { "type": "Point", "coordinates": [ 113.531071, 23.492397 ] } },
{ "type": "Feature", "properties": { "NAME": "����վ", "KIND": "4080", "ADDRESS": "�㶫ʡ�����дӻ��н�����", "TELEPHONE": null }, "geometry": { "type": "Point", "coordinates": [ 113.568815, 23.515435 ] } },
{ "type": "Feature", "properties": { "NAME": "����վ", "KIND": "4080", "ADDRESS": "�㶫ʡ�����дӻ��дӻ�", "TELEPHONE": null }, "geometry": { "type": "Point", "coordinates": [ 113.567276, 23.549943 ] } },
{ "type": "Feature", "properties": { "NAME": "��������վ", "KIND": "4080", "ADDRESS": "�㶫ʡ�����дӻ��дӻ�", "TELEPHONE": null }, "geometry": { "type": "Point", "coordinates": [ 113.5961, 23.565062 ] } },
{ "type": "Feature", "properties": { "NAME": "���ﲽ����վ", "KIND": "4080", "ADDRESS": "�㶫ʡ�����дӻ��н�����", "TELEPHONE": null }, "geometry": { "type": "Point", "coordinates": [ 113.611898, 23.584065 ] } },
{ "type": "Feature", "properties": { "NAME": "����վ", "KIND": "4081", "ADDRESS": "�㶫ʡ�����дӻ��н�����", "TELEPHONE": null }, "geometry": { "type": "Point", "coordinates": [ 113.61366, 23.578327 ] } },
{ "type": "Feature", "properties": { "NAME": "����վ", "KIND": "4080", "ADDRESS": "�㶫ʡ������������������", "TELEPHONE": null }, "geometry": { "type": "Point", "coordinates": [ 113.827606, 23.324525 ] } },
{ "type": "Feature", "properties": { "NAME": "����վ", "KIND": "4081", "ADDRESS": "�㶫ʡ�����дӻ�����԰��", "TELEPHONE": null }, "geometry": { "type": "Point", "coordinates": [ 113.66859, 23.647867 ] } },
{ "type": "Feature", "properties": { "NAME": "����վ", "KIND": "4081", "ADDRESS": "�㶫ʡ�����дӻ�����԰��", "TELEPHONE": null }, "geometry": { "type": "Point", "coordinates": [ 113.672997, 23.665384 ] } },
{ "type": "Feature", "properties": { "NAME": "����վ", "KIND": "4080", "ADDRESS": "�㶫ʡ�����дӻ���������", "TELEPHONE": null }, "geometry": { "type": "Point", "coordinates": [ 113.938049, 23.802651 ] } },
{ "type": "Feature", "properties": { "NAME": "����վ", "KIND": "4081", "ADDRESS": "�㶫ʡ�����ط��������Ĳ�", "TELEPHONE": null }, "geometry": { "type": "Point", "coordinates": [ 113.406961, 23.72634 ] } },
{ "type": "Feature", "properties": { "NAME": "���ڼ���վ", "KIND": "4081", "ADDRESS": "�㶫ʡ�����ط��������Ĳ�", "TELEPHONE": null }, "geometry": { "type": "Point", "coordinates": [ 113.407793, 23.725048 ] } },
{ "type": "Feature", "properties": { "NAME": "������վ", "KIND": "4080", "ADDRESS": "�㶫ʡ��ݸ�ж�ݸ�����Ĳ�", "TELEPHONE": null }, "geometry": { "type": "Point", "coordinates": [ 113.642996, 23.11752 ] } },
{ "type": "Feature", "properties": { "NAME": "˳�Ӱ�����վ", "KIND": "4081", "ADDRESS": "�㶫ʡ�����а�����������", "TELEPHONE": null }, "geometry": { "type": "Point", "coordinates": [ 113.253738, 23.297814 ] } },
{ "type": "Feature", "properties": { "NAME": "ͨ�����޳��£�������ָ�����͵�", "KIND": "4500", "ADDRESS": "�㶫ʡ�����а�����������", "TELEPHONE": null }, "geometry": { "type": "Point", "coordinates": [ 113.296793, 23.276736 ] } },
{ "type": "Feature", "properties": { "NAME": "����������������", "KIND": "4500", "ADDRESS": "�㶫ʡ�����а�����̫����", "TELEPHONE": "02087438348" }, "geometry": { "type": "Point", "coordinates": [ 113.347259, 23.305682 ] } },
{ "type": "Feature", "properties": { "NAME": "��������Ż��ͽ�������������һվ", "KIND": "4500", "ADDRESS": "�㶫ʡ������Խ�������Ž�", "TELEPHONE": null }, "geometry": { "type": "Point", "coordinates": [ 113.252766, 23.128039 ] } },
{ "type": "Feature", "properties": { "NAME": "˳���������䳧��������������Լ��", "KIND": "4500", "ADDRESS": "�㶫ʡ������Խ������Ȫ��", "TELEPHONE": null }, "geometry": { "type": "Point", "coordinates": [ 113.24419, 23.16642 ] } },
{ "type": "Feature", "properties": { "NAME": "��һ�����ھ�רҵ��������", "KIND": "4500", "ADDRESS": "�㶫ʡ�����а��������ƴ����ϣ���", "TELEPHONE": null }, "geometry": { "type": "Point", "coordinates": [ 113.266113, 23.163527 ] } },
{ "type": "Feature", "properties": { "NAME": "��������������������", "KIND": "4500", "ADDRESS": "�㶫ʡ�����а�������̩��", "TELEPHONE": null }, "geometry": { "type": "Point", "coordinates": [ 113.270033, 23.16416 ] } },
{ "type": "Feature", "properties": { "NAME": "������վ", "KIND": "4080", "ADDRESS": "�㶫ʡ�����к��������ݴ����ϣ�������", "TELEPHONE": null }, "geometry": { "type": "Point", "coordinates": [ 113.307367, 23.07707 ] } },
{ "type": "Feature", "properties": { "NAME": "���˻�������", "KIND": "4500", "ADDRESS": "�㶫ʡ�������������׺׶���", "TELEPHONE": null }, "geometry": { "type": "Point", "coordinates": [ 113.233233, 23.073741 ] } },
{ "type": "Feature", "properties": { "NAME": "̫ƽ��������Ʒ�������ͷ�������", "KIND": "4500", "ADDRESS": "�㶫ʡ�����з�خ�����Ž�", "TELEPHONE": null }, "geometry": { "type": "Point", "coordinates": [ 113.371292, 22.93599 ] } },
{ "type": "Feature", "properties": { "NAME": "������վ", "KIND": "4080", "ADDRESS": "�㶫ʡ�����л�����������", "TELEPHONE": null }, "geometry": { "type": "Point", "coordinates": [ 113.220331, 23.360518 ] } },
{ "type": "Feature", "properties": { "NAME": "��Ծ�������ٻ�������", "KIND": "4300", "ADDRESS": "�㶫ʡ�����л������»���", "TELEPHONE": null }, "geometry": { "type": "Point", "coordinates": [ 113.194139, 23.402259 ] } },
{ "type": "Feature", "properties": { "NAME": "˳���ͳ�", "KIND": "4081", "ADDRESS": "�㶫ʡ�����а�����������", "TELEPHONE": null }, "geometry": { "type": "Point", "coordinates": [ 113.227818, 23.320719 ] } },
{ "type": "Feature", "properties": { "NAME": "������վ", "KIND": "4083", "ADDRESS": "�㶫ʡ�����л�����������", "TELEPHONE": null }, "geometry": { "type": "Point", "coordinates": [ 113.284547, 23.543007 ] } },
{ "type": "Feature", "properties": { "NAME": "�����վ", "KIND": "4080", "ADDRESS": "�㶫ʡ�����дӻ�����̶��", "TELEPHONE": null }, "geometry": { "type": "Point", "coordinates": [ 113.409388, 23.639035 ] } },
{ "type": "Feature", "properties": { "NAME": "�����ͳ�", "KIND": "4080", "ADDRESS": "�㶫ʡ�����дӻ���������", "TELEPHONE": null }, "geometry": { "type": "Point", "coordinates": [ 113.491943, 23.583596 ] } },
{ "type": "Feature", "properties": { "NAME": "˳����վ", "KIND": "4081", "ADDRESS": "�㶫ʡ�����дӻ���������", "TELEPHONE": null }, "geometry": { "type": "Point", "coordinates": [ 113.511674, 23.477866 ] } },
{ "type": "Feature", "properties": { "NAME": "������վ", "KIND": "4081", "ADDRESS": "�㶫ʡ������������������", "TELEPHONE": null }, "geometry": { "type": "Point", "coordinates": [ 113.398148, 23.156135 ] } },
{ "type": "Feature", "properties": { "NAME": "�����������������", "KIND": "4300", "ADDRESS": "�㶫ʡ������������Ա������·��������", "TELEPHONE": null }, "geometry": { "type": "Point", "coordinates": [ 113.354387, 23.114413 ] } },
{ "type": "Feature", "properties": { "NAME": "���������վ", "KIND": "4081", "ADDRESS": "�㶫ʡ������������ʯ�ƽ�", "TELEPHONE": null }, "geometry": { "type": "Point", "coordinates": [ 113.356959, 23.130258 ] } },
{ "type": "Feature", "properties": { "NAME": "���ͽ��ܻƴ��̣УǼ���վ", "KIND": "4080", "ADDRESS": "�㶫ʡ������������������", "TELEPHONE": null }, "geometry": { "type": "Point", "coordinates": [ 113.399916, 23.129561 ] } },
{ "type": "Feature", "properties": { "NAME": "�����վ", "KIND": "4080", "ADDRESS": "�㶫ʡ������������������", "TELEPHONE": null }, "geometry": { "type": "Point", "coordinates": [ 113.400501, 23.110719 ] } },
{ "type": "Feature", "properties": { "NAME": "�ӵ�ʿ��վ", "KIND": "4080", "ADDRESS": "�㶫ʡ��������������ɽ�����У�������", "TELEPHONE": null }, "geometry": { "type": "Point", "coordinates": [ 113.417249, 23.118311 ] } },
{ "type": "Feature", "properties": { "NAME": "־��רҵ�������ݻ������ڻ��ͷ�������", "KIND": "4500", "ADDRESS": "�㶫ʡ�����з�خ�����Ž�", "TELEPHONE": "02084808563" }, "geometry": { "type": "Point", "coordinates": [ 113.36484, 22.947536 ] } },
{ "type": "Feature", "properties": { "NAME": "����ʯ��", "KIND": "4080", "ADDRESS": "�㶫ʡ�����з�خ��������", "TELEPHONE": null }, "geometry": { "type": "Point", "coordinates": [ 113.373718, 23.049553 ] } },
{ "type": "Feature", "properties": { "NAME": "��������͹�����ʯ�;�Ӫ��", "KIND": "4080", "ADDRESS": "�㶫ʡ�����������������", "TELEPHONE": null }, "geometry": { "type": "Point", "coordinates": [ 113.593082, 23.181664 ] } },
{ "type": "Feature", "properties": { "NAME": "����һվʽ����רҵ���ݻ�������", "KIND": "4500", "ADDRESS": "�㶫ʡ����������������ɳ�Ҵ�������·��", "TELEPHONE": null }, "geometry": { "type": "Point", "coordinates": [ 113.650776, 23.168864 ] } },
{ "type": "Feature", "properties": { "NAME": "������վ", "KIND": "4081", "ADDRESS": "�㶫ʡ������������������", "TELEPHONE": null }, "geometry": { "type": "Point", "coordinates": [ 113.872484, 23.227824 ] } },
{ "type": "Feature", "properties": { "NAME": "ӯͨ��վ", "KIND": "4080", "ADDRESS": "�㶫ʡ�����дӻ��н�����", "TELEPHONE": null }, "geometry": { "type": "Point", "coordinates": [ 113.589678, 23.524949 ] } },
{ "type": "Feature", "properties": { "NAME": "������վ", "KIND": "4080", "ADDRESS": "�㶫ʡ�����дӻ��н�����", "TELEPHONE": null }, "geometry": { "type": "Point", "coordinates": [ 113.613007, 23.581157 ] } },
{ "type": "Feature", "properties": { "NAME": "������վ", "KIND": "4080", "ADDRESS": "�㶫ʡ�����дӻ��н�����", "TELEPHONE": null }, "geometry": { "type": "Point", "coordinates": [ 113.643544, 23.521528 ] } },
{ "type": "Feature", "properties": { "NAME": "����Ȫ��վ", "KIND": "4080", "ADDRESS": "�㶫ʡ�����дӻ��������", "TELEPHONE": null }, "geometry": { "type": "Point", "coordinates": [ 113.691252, 23.68678 ] } },
{ "type": "Feature", "properties": { "NAME": "�뻪��վ", "KIND": "4081", "ADDRESS": "�㶫ʡ�����дӻ��������", "TELEPHONE": null }, "geometry": { "type": "Point", "coordinates": [ 113.734885, 23.726122 ] } },
{ "type": "Feature", "properties": { "NAME": "������վ", "KIND": "4080", "ADDRESS": "�㶫ʡ�����дӻ��ж�����", "TELEPHONE": null }, "geometry": { "type": "Point", "coordinates": [ 113.90417, 23.893058 ] } }
]
}
